{"_id":519188,"name":"Новинки","country":"RU","coord":{"lon":37.666668,"lat":55.683334}}
{"_id":529334,"name":"Марьина Роща","country":"RU","coord":{"lon":37.611111,"lat":55.796391}}
{"_id":473537,"name":"Виноградово","country":"RU","coord":{"lon":38.545555,"lat":55.423332}}
{"_id":569143,"name":"Черкизово","country":"RU","coord":{"lon":37.728889,"lat":55.800835}}
{"_id":464176,"name":"Заветы Ильича","country":"RU","coord":{"lon":37.849998,"lat":56.049999}}
{"_id":464737,"name":"Запонорье","country":"RU","coord":{"lon":38.861942,"lat":55.639999}}
{"_id":803611,"name":"Юревичи","country":"RU","coord":{"lon":39.934444,"lat":43.600555}}
{"_id":2051302,"name":"Приисковый","country":"RU","coord":{"lon":132.822495,"lat":42.819168}}
{"_id":563692,"name":"Джага","country":"RU","coord":{"lon":42.650002,"lat":43.25}}
{"_id":481725,"name":"Третья Рота","country":"RU","coord":{"lon":39.681389,"lat":43.741943}}
{"_id":2017370,"name":"Российская Федерация","country":"RU","coord":{"lon":100,"lat":60}}
{"_id":2045761,"name":"Де-Фриз","country":"RU","coord":{"lon":131.991394,"lat":43.27861}}
{"_id":476350,"name":"Вавибет","country":"RU","coord":{"lon":34.916668,"lat":67.933334}}
{"_id":475279,"name":"Верхнее Щекотихино","country":"RU","coord":{"lon":36.133331,"lat":53}}
{"_id":802899,"name":"Мутайкутан","country":"RU","coord":{"lon":47.660641,"lat":42.818859}}
{"_id":523523,"name":"Нальчик","country":"RU","coord":{"lon":43.618889,"lat":43.498058}}
{"_id":546448,"name":"Колганов","country":"RU","coord":{"lon":40.066669,"lat":44.366669}}
{"_id":500023,"name":"Рыбацкий","country":"RU","coord":{"lon":44.166389,"lat":44.799171}}
{"_id":524894,"name":"Москва","country":"RU","coord":{"lon":37.606667,"lat":55.761665}}
{"_id":494806,"name":"Шереметьевский","country":"RU","coord":{"lon":37.491112,"lat":55.98}}
{"_id":467104,"name":"Ершово","country":"RU","coord":{"lon":36.858055,"lat":55.771111}}
{"_id":462352,"name":"Знаменка","country":"RU","coord":{"lon":35.981392,"lat":52.896671}}
{"_id":524925,"name":"Московская Область","country":"RU","coord":{"lon":37.628334,"lat":55.75639}}
{"_id":510291,"name":"Петергоф","country":"RU","coord":{"lon":29.9,"lat":59.883331}}
{"_id":518858,"name":"Гребнево","country":"RU","coord":{"lon":38.072777,"lat":55.961945}}
{"_id":499452,"name":"Сафоново","country":"RU","coord":{"lon":33.216671,"lat":55.150002}}
{"_id":2027487,"name":"Архара","country":"RU","coord":{"lon":130.084198,"lat":49.4212}}
{"_id":498817,"name":"Санкт-Петербург","country":"RU","coord":{"lon":30.264168,"lat":59.894444}}
{"_id":539907,"name":"Кудепста","country":"RU","coord":{"lon":39.896389,"lat":43.494446}}
{"_id":501847,"name":"Рочегда","country":"RU","coord":{"lon":43.25,"lat":62.799999}}
{"_id":569339,"name":"Черемисиново","country":"RU","coord":{"lon":37.264599,"lat":51.885502}}
{"_id":1496889,"name":"Новоомский","country":"RU","coord":{"lon":73.301743,"lat":54.841518}}
{"_id":487928,"name":"Старый Оскол","country":"RU","coord":{"lon":37.841667,"lat":51.296665}}
{"_id":2013465,"name":"Верхоянск","country":"RU","coord":{"lon":133.384995,"lat":67.544724}}
{"_id":2127202,"name":"Анадыр","country":"RU","coord":{"lon":177.483337,"lat":64.75}}
{"_id":2122311,"name":"Оймякон","country":"RU","coord":{"lon":142.816666,"lat":63.466671}}
{"_id":578652,"name":"Батюнино","country":"RU","coord":{"lon":37.700001,"lat":55.66}}
{"_id":583489,"name":"Алачково","country":"RU","coord":{"lon":37.560001,"lat":55.200001}}
{"_id":6417336,"name":"Дальние Прудищи","country":"RU","coord":{"lon":37.860279,"lat":55.553333}}
{"_id":520077,"name":"Нагатино","country":"RU","coord":{"lon":37.683334,"lat":55.683334}}
{"_id":467951,"name":"Елгазино","country":"RU","coord":{"lon":37.866669,"lat":55.416668}}
{"_id":576721,"name":"Беседы","country":"RU","coord":{"lon":37.790001,"lat":55.610001}}
{"_id":470819,"name":"Введенское","country":"RU","coord":{"lon":36.894444,"lat":55.695278}}
{"_id":502018,"name":"Реутов","country":"RU","coord":{"lon":37.861668,"lat":55.759445}}
{"_id":538601,"name":"Куровское","country":"RU","coord":{"lon":38.910831,"lat":55.578335}}
{"_id":820027,"name":"Гореносово","country":"RU","coord":{"lon":37.250278,"lat":55.818054}}
{"_id":560756,"name":"Голицыно","country":"RU","coord":{"lon":36.983334,"lat":55.612221}}
{"_id":519690,"name":"Новая Голландия","country":"RU","coord":{"lon":30.290508,"lat":59.929432}}
{"_id":536203,"name":"Санкт-Петербург","country":"RU","coord":{"lon":30.25,"lat":59.916668}}
{"_id":531232,"name":"Малая Яблоновка","country":"RU","coord":{"lon":30.433332,"lat":59.933334}}
{"_id":531483,"name":"Малая Охта","country":"RU","coord":{"lon":30.4125,"lat":59.928333}}
{"_id":521561,"name":"Никольское","country":"RU","coord":{"lon":36.716667,"lat":56.150002}}
{"_id":537691,"name":"Кузнецово","country":"RU","coord":{"lon":36.650002,"lat":56.133331}}
{"_id":463666,"name":"Зенькино","country":"RU","coord":{"lon":36.771942,"lat":55.94389}}
{"_id":485279,"name":"Сычёвка","country":"RU","coord":{"lon":36.822498,"lat":55.914165}}
{"_id":6726099,"name":"Вечери","country":"RU","coord":{"lon":37.512775,"lat":54.844013}}
{"_id":465825,"name":"Заборье","country":"RU","coord":{"lon":37.785278,"lat":55.384167}}
{"_id":485275,"name":"Сычево","country":"RU","coord":{"lon":38.71384,"lat":55.061958}}
{"_id":499051,"name":"Самашки","country":"RU","coord":{"lon":45.301392,"lat":43.290562}}
{"_id":561534,"name":"Герзел-Аул","country":"RU","coord":{"lon":46.4025,"lat":43.247219}}
{"_id":580299,"name":"Авдон","country":"RU","coord":{"lon":55.716671,"lat":54.666672}}
{"_id":6417711,"name":"Посёлок Нефтебазы","country":"RU","coord":{"lon":37.851944,"lat":55.785831}}
{"_id":502069,"name":"Решетниково","country":"RU","coord":{"lon":36.566666,"lat":56.450001}}
{"_id":480041,"name":"Тверская Область","country":"RU","coord":{"lon":35.004879,"lat":57.009644}}
{"_id":517183,"name":"Новые Берёзки","country":"RU","coord":{"lon":37.366669,"lat":56.866669}}
{"_id":509820,"name":"Петрозаводск","country":"RU","coord":{"lon":34.346909,"lat":61.784912}}
{"_id":545633,"name":"Кондока","country":"RU","coord":{"lon":30.6,"lat":64.583336}}
{"_id":547560,"name":"Климовск","country":"RU","coord":{"lon":37.525002,"lat":55.364723}}
{"_id":498349,"name":"Савёлово","country":"RU","coord":{"lon":37.366669,"lat":56.866669}}
{"_id":513633,"name":"Ойнашниеми","country":"RU","coord":{"lon":30.416668,"lat":65.116669}}
{"_id":523110,"name":"Назарово","country":"RU","coord":{"lon":36.616669,"lat":56.066666}}
{"_id":507614,"name":"Покоево","country":"RU","coord":{"lon":36.633331,"lat":56.033333}}
{"_id":498337,"name":"Савельево","country":"RU","coord":{"lon":36.599998,"lat":56}}
{"_id":565711,"name":"Долево","country":"RU","coord":{"lon":36.615833,"lat":55.993332}}
{"_id":538585,"name":"Курсаково-Марково","country":"RU","coord":{"lon":36.641666,"lat":55.978611}}
{"_id":562837,"name":"Филатово","country":"RU","coord":{"lon":36.677223,"lat":55.973057}}
{"_id":561278,"name":"Глебово","country":"RU","coord":{"lon":36.69389,"lat":55.955002}}
{"_id":571144,"name":"Букарево","country":"RU","coord":{"lon":36.728889,"lat":55.952499}}
{"_id":569406,"name":"Чепелёво","country":"RU","coord":{"lon":37.491112,"lat":55.18222}}
{"_id":476368,"name":"Ватутино","country":"RU","coord":{"lon":37.686668,"lat":55.879723}}
{"_id":547379,"name":"Клязьма","country":"RU","coord":{"lon":37.834721,"lat":55.979168}}
{"_id":503978,"name":"Пушкино","country":"RU","coord":{"lon":37.833332,"lat":56.011112}}
{"_id":528211,"name":"Майское","country":"RU","coord":{"lon":37.916668,"lat":56.133331}}
{"_id":463790,"name":"Зеленцино","country":"RU","coord":{"lon":38.75,"lat":56.283333}}
{"_id":532598,"name":"Любимец","country":"RU","coord":{"lon":38.799999,"lat":56.083332}}
{"_id":473936,"name":"Ветчи","country":"RU","coord":{"lon":39,"lat":55.950001}}
{"_id":566950,"name":"Давыдово","country":"RU","coord":{"lon":38.856945,"lat":55.609722}}
{"_id":818493,"name":"Щекутина","country":"RU","coord":{"lon":36.699444,"lat":55.327499}}
{"_id":818486,"name":"Рогачева","country":"RU","coord":{"lon":36.665001,"lat":55.261944}}
{"_id":523186,"name":"Навля","country":"RU","coord":{"lon":34.49889,"lat":52.828056}}
{"_id":818030,"name":"Свитино","country":"RU","coord":{"lon":37.372501,"lat":55.306667}}
{"_id":473353,"name":"Вислый Бор","country":"RU","coord":{"lon":41.81139,"lat":53.665558}}
{"_id":6708894,"name":"Буровка","country":"RU","coord":{"lon":47.502453,"lat":52.455254}}
{"_id":478203,"name":"Успенский","country":"RU","coord":{"lon":48.700001,"lat":52.049999}}
{"_id":474751,"name":"Верхняя Ахтуба","country":"RU","coord":{"lon":44.790001,"lat":48.771667}}
{"_id":462970,"name":"Жирово","country":"RU","coord":{"lon":38.540558,"lat":55.601944}}
{"_id":576263,"name":"Бисерово","country":"RU","coord":{"lon":38.115833,"lat":55.783054}}
{"_id":471980,"name":"Вороний Остров","country":"RU","coord":{"lon":35.5,"lat":62.183334}}
{"_id":572275,"name":"Бородино","country":"RU","coord":{"lon":36.733334,"lat":56.316666}}
{"_id":481603,"name":"Троицкая","country":"RU","coord":{"lon":29.75,"lat":59.916668}}
{"_id":560455,"name":"Гольево","country":"RU","coord":{"lon":37.31139,"lat":55.799721}}
{"_id":471748,"name":"Воря-Богородское","country":"RU","coord":{"lon":38.166668,"lat":56.049999}}
{"_id":495619,"name":"Шаря","country":"RU","coord":{"lon":45.514442,"lat":58.36861}}
{"_id":572248,"name":"Бородулино","country":"RU","coord":{"lon":42.883331,"lat":56.650002}}
{"_id":527451,"name":"Мервино","country":"RU","coord":{"lon":39.669998,"lat":54.642776}}
{"_id":6198157,"name":"Ялпай","country":"RU","coord":{"lon":47.899166,"lat":56.176388}}
{"_id":6198533,"name":"Пучина","country":"RU","coord":{"lon":47.786667,"lat":56.197498}}
{"_id":491687,"name":"Смоленск","country":"RU","coord":{"lon":32.040001,"lat":54.781666}}
{"_id":467030,"name":"Есиплево","country":"RU","coord":{"lon":46.366669,"lat":60.733334}}
{"_id":823660,"name":"Верховское","country":"RU","coord":{"lon":39.816666,"lat":43.623333}}
{"_id":567322,"name":"Чвижепсе","country":"RU","coord":{"lon":40.085278,"lat":43.631111}}
{"_id":542681,"name":"Красная Поляна","country":"RU","coord":{"lon":40.207222,"lat":43.675835}}
{"_id":823675,"name":"Культурное Учдере","country":"RU","coord":{"lon":39.636665,"lat":43.676945}}
{"_id":805597,"name":"Сергей-Поле","country":"RU","coord":{"lon":39.704723,"lat":43.673889}}
{"_id":805616,"name":"Нижнее Орехово","country":"RU","coord":{"lon":39.7775,"lat":43.707222}}
{"_id":805557,"name":"Вторая Рота","country":"RU","coord":{"lon":39.711109,"lat":43.772499}}
{"_id":805559,"name":"Верхнерусская Хобза","country":"RU","coord":{"lon":39.630001,"lat":43.782501}}
{"_id":823556,"name":"Харциз Первый","country":"RU","coord":{"lon":39.638889,"lat":43.794167}}
{"_id":490936,"name":"Солохаул","country":"RU","coord":{"lon":39.678055,"lat":43.799442}}
{"_id":570140,"name":"Бзогу","country":"RU","coord":{"lon":39.718613,"lat":43.812778}}
{"_id":501043,"name":"Рождественский","country":"RU","coord":{"lon":39.583889,"lat":43.86639}}
{"_id":530631,"name":"Малое Образцово","country":"RU","coord":{"lon":38.150002,"lat":54.916668}}
{"_id":481501,"name":"Троицкое","country":"RU","coord":{"lon":35.917778,"lat":55.193054}}
{"_id":2048736,"name":"Санаторная","country":"RU","coord":{"lon":131.984161,"lat":43.227501}}
{"_id":554667,"name":"Кабардино-Балкарская Республика","country":"RU","coord":{"lon":43.5,"lat":43.5}}
{"_id":516981,"name":"Новый Кругозор","country":"RU","coord":{"lon":42.50111,"lat":43.247223}}
{"_id":2014571,"name":"Угловое","country":"RU","coord":{"lon":132.09166,"lat":43.328888}}
{"_id":2021956,"name":"Кневичи","country":"RU","coord":{"lon":132.180283,"lat":43.399166}}
{"_id":584243,"name":"Адлер","country":"RU","coord":{"lon":39.919998,"lat":43.43}}
{"_id":823631,"name":"Якорная Щель","country":"RU","coord":{"lon":39.565834,"lat":43.810555}}
{"_id":584003,"name":"Агой","country":"RU","coord":{"lon":39.029999,"lat":44.139999}}
{"_id":501165,"name":"Ростовская Область","country":"RU","coord":{"lon":42,"lat":47}}
{"_id":553428,"name":"Ростов-на-Дону","country":"RU","coord":{"lon":39.696945,"lat":47.279446}}
{"_id":2013229,"name":"Вяземский","country":"RU","coord":{"lon":134.752502,"lat":47.537777}}
{"_id":797077,"name":"Поповка","country":"RU","coord":{"lon":40.347221,"lat":48.698891}}
{"_id":798056,"name":"Тюльпан","country":"RU","coord":{"lon":44.862778,"lat":48.735001}}
{"_id":472045,"name":"Воронеж","country":"RU","coord":{"lon":39.169998,"lat":51.666389}}
{"_id":575343,"name":"Болохово","country":"RU","coord":{"lon":37.818333,"lat":54.093613}}
{"_id":819162,"name":"Вослинка","country":"RU","coord":{"lon":38.533611,"lat":54.726112}}
{"_id":524304,"name":"Мурманская Область","country":"RU","coord":{"lon":34,"lat":68}}
{"_id":528562,"name":"Матросы","country":"RU","coord":{"lon":33.799999,"lat":61.783333}}
{"_id":554230,"name":"Калининградская Область","country":"RU","coord":{"lon":21.5,"lat":54.75}}
{"_id":826279,"name":"Горбатовка","country":"RU","coord":{"lon":20.156389,"lat":54.920555}}
{"_id":826278,"name":"Пригородный","country":"RU","coord":{"lon":20.156944,"lat":54.92889}}
{"_id":2609894,"name":"Янтарный","country":"RU","coord":{"lon":19.938057,"lat":54.871666}}
{"_id":873882,"name":"Торфяное","country":"RU","coord":{"lon":30.320557,"lat":60.077499}}
{"_id":563249,"name":"Федореевка","country":"RU","coord":{"lon":36.147499,"lat":53.004723}}
{"_id":524844,"name":"Мостки","country":"RU","coord":{"lon":36.156666,"lat":52.99139}}
{"_id":504849,"name":"Прокуровка","country":"RU","coord":{"lon":36.133331,"lat":52.983334}}
{"_id":463043,"name":"Жилина","country":"RU","coord":{"lon":36.083332,"lat":52.983334}}
{"_id":515012,"name":"Орел","country":"RU","coord":{"lon":36.080276,"lat":52.965832}}
{"_id":498093,"name":"Сайгатово","country":"RU","coord":{"lon":38.01667,"lat":54.866669}}
{"_id":559229,"name":"Гостищево","country":"RU","coord":{"lon":36.655159,"lat":50.779449}}
{"_id":543138,"name":"Козловка","country":"RU","coord":{"lon":35.196388,"lat":54.790001}}
{"_id":525713,"name":"Мокрое","country":"RU","coord":{"lon":35.23056,"lat":54.759441}}
{"_id":817438,"name":"Подборье","country":"RU","coord":{"lon":35.261669,"lat":54.775002}}
{"_id":538108,"name":"Кувшиново","country":"RU","coord":{"lon":35.275829,"lat":54.78056}}
{"_id":545992,"name":"Колыхманово","country":"RU","coord":{"lon":35.285,"lat":54.763062}}
{"_id":483269,"name":"Терскол","country":"RU","coord":{"lon":42.515282,"lat":43.25528}}
{"_id":1541618,"name":"Затон","country":"RU","coord":{"lon":82.859718,"lat":55.032219}}
{"_id":2014927,"name":"Тулун","country":"RU","coord":{"lon":100.57917,"lat":54.561111}}
{"_id":2018046,"name":"Перевоз","country":"RU","coord":{"lon":100.633331,"lat":54.549999}}
{"_id":2052144,"name":"Азей","country":"RU","coord":{"lon":100.76667,"lat":54.509171}}
{"_id":2027288,"name":"Азей","country":"RU","coord":{"lon":100.791672,"lat":54.452782}}
{"_id":2016742,"name":"Шерагул","country":"RU","coord":{"lon":100.89389,"lat":54.451389}}
{"_id":2018854,"name":"Новотроицк","country":"RU","coord":{"lon":101.044998,"lat":54.45472}}
{"_id":2015082,"name":"Трактовая","country":"RU","coord":{"lon":101.058891,"lat":54.481392}}
{"_id":2014917,"name":"Тулюшка","country":"RU","coord":{"lon":101.169998,"lat":54.458328}}
{"_id":2019963,"name":"Мингатуй","country":"RU","coord":{"lon":101.301392,"lat":54.431938}}
{"_id":2052150,"name":"Еланский","country":"RU","coord":{"lon":101.371109,"lat":54.34972}}
{"_id":2021093,"name":"Куйтун","country":"RU","coord":{"lon":101.503609,"lat":54.341942}}
{"_id":2023085,"name":"Касьяновка","country":"RU","coord":{"lon":101.583328,"lat":54.316669}}
{"_id":804310,"name":"Ташлинский","country":"RU","coord":{"lon":42.088329,"lat":45.098061}}
{"_id":518310,"name":"Ново-Покровское","country":"RU","coord":{"lon":47.98333,"lat":46.299999}}
{"_id":804751,"name":"Салыно-Хулсунские","country":"RU","coord":{"lon":44.338058,"lat":46.38694}}
{"_id":2121529,"name":"Сахалинская Область","country":"RU","coord":{"lon":143,"lat":50}}
{"_id":2124604,"name":"Хомутово","country":"RU","coord":{"lon":142.744431,"lat":46.885979}}
{"_id":8144372,"name":"Кирличный","country":"RU","coord":{"lon":39.835018,"lat":47.252258}}
{"_id":2020162,"name":"Матвеевка","country":"RU","coord":{"lon":135.190002,"lat":48.548889}}
{"_id":560399,"name":"Гончары","country":"RU","coord":{"lon":44.355831,"lat":48.794998}}
{"_id":2024173,"name":"Гардами","country":"RU","coord":{"lon":136.366669,"lat":49.25}}
{"_id":2027748,"name":"Амурская Область","country":"RU","coord":{"lon":128,"lat":54}}
{"_id":809954,"name":"Муралево","country":"RU","coord":{"lon":36.294331,"lat":51.79583}}
{"_id":483828,"name":"Текстильщик","country":"RU","coord":{"lon":37.844719,"lat":55.94083}}
{"_id":1495797,"name":"Овсянка","country":"RU","coord":{"lon":92.551941,"lat":55.9575}}
{"_id":1509223,"name":"Большой Исток","country":"RU","coord":{"lon":60.783298,"lat":56.719501}}
{"_id":2013727,"name":"Ванавара","country":"RU","coord":{"lon":102.279716,"lat":60.34}}
{"_id":2020221,"name":"Марха","country":"RU","coord":{"lon":129.726944,"lat":62.105282}}
{"_id":817409,"name":"Кравцово","country":"RU","coord":{"lon":37.807701,"lat":55.05442}}
{"_id":488839,"name":"Староджерелиевская","country":"RU","coord":{"lon":38.296799,"lat":45.47599}}
{"_id":498698,"name":"Саранск","country":"RU","coord":{"lon":45.1749,"lat":54.1838}}
{"_id":552252,"name":"Карпов","country":"RU","coord":{"lon":46.183331,"lat":49.683331}}
{"_id":527191,"name":"Мичуринск","country":"RU","coord":{"lon":40.4907,"lat":52.8978}}
{"_id":1497337,"name":"Норилск","country":"RU","coord":{"lon":88.202698,"lat":69.3535}}
{"_id":2123628,"name":"Магадан","country":"RU","coord":{"lon":150.800003,"lat":59.566669}}
{"_id":2119441,"name":"Южно-Сахалинск","country":"RU","coord":{"lon":142.733658,"lat":46.958118}}
{"_id":1493870,"name":"Пышма","country":"RU","coord":{"lon":63.251289,"lat":56.952259}}
{"_id":553287,"name":"Камышин","country":"RU","coord":{"lon":45.416012,"lat":50.098331}}
{"_id":1511736,"name":"Алтайское","country":"RU","coord":{"lon":85.332497,"lat":51.953331}}
{"_id":512047,"name":"Павловская","country":"RU","coord":{"lon":30.133329,"lat":59.566669}}
{"_id":489271,"name":"Стар","country":"RU","coord":{"lon":34.151829,"lat":53.623619}}
{"_id":548408,"name":"Киров","country":"RU","coord":{"lon":49.660069,"lat":58.596649}}
{"_id":6864865,"name":"Свердловский","country":"RU","coord":{"lon":86.145401,"lat":54.583801}}
{"_id":472328,"name":"Волот","country":"RU","coord":{"lon":30.702499,"lat":57.92778}}
{"_id":471323,"name":"Войсковицы","country":"RU","coord":{"lon":29.963961,"lat":59.528671}}
{"_id":501296,"name":"Рощино","country":"RU","coord":{"lon":29.6085,"lat":60.251911}}
{"_id":534841,"name":"Лисий Нос","country":"RU","coord":{"lon":30.020081,"lat":60.016861}}
{"_id":1494326,"name":"Поспелова","country":"RU","coord":{"lon":66.071068,"lat":56.234989}}
{"_id":1506418,"name":"Гонба","country":"RU","coord":{"lon":83.574699,"lat":53.417198}}
{"_id":1506676,"name":"Гари","country":"RU","coord":{"lon":62.34967,"lat":59.43074}}
{"_id":1506938,"name":"Ерзин","country":"RU","coord":{"lon":95.1623,"lat":50.261002}}
{"_id":1507172,"name":"Дубинино","country":"RU","coord":{"lon":89.09111,"lat":55.619171}}
{"_id":1507638,"name":"Чунояр","country":"RU","coord":{"lon":97.321671,"lat":57.446671}}
{"_id":1507745,"name":"Чоя","country":"RU","coord":{"lon":86.5467,"lat":52.010799}}
{"_id":1507801,"name":"Чистогорский","country":"RU","coord":{"lon":87.3843,"lat":53.983501}}
{"_id":1507926,"name":"Чесма","country":"RU","coord":{"lon":60.653332,"lat":53.811111}}
{"_id":1508636,"name":"Бурла","country":"RU","coord":{"lon":78.330101,"lat":53.336201}}
{"_id":1510131,"name":"Бея","country":"RU","coord":{"lon":90.913887,"lat":53.053329}}
{"_id":1510370,"name":"Белый Яр","country":"RU","coord":{"lon":85.042503,"lat":58.444721}}
{"_id":1510817,"name":"Барзас","country":"RU","coord":{"lon":86.316673,"lat":55.716671}}
{"_id":463885,"name":"Зеленчукская","country":"RU","coord":{"lon":41.589401,"lat":43.85804}}
{"_id":490466,"name":"Сортавала","country":"RU","coord":{"lon":30.69178,"lat":61.705318}}
{"_id":491882,"name":"Слободской","country":"RU","coord":{"lon":50.177219,"lat":58.73222}}
{"_id":494427,"name":"Шилово","country":"RU","coord":{"lon":40.874001,"lat":54.3204}}
{"_id":505421,"name":"Придонской","country":"RU","coord":{"lon":39.072701,"lat":51.684059}}
{"_id":515804,"name":"Цоцин-Юрт","country":"RU","coord":{"lon":46.001671,"lat":43.23806}}
{"_id":526346,"name":"Мирный","country":"RU","coord":{"lon":44.53598,"lat":61.33289}}
{"_id":534838,"name":"Лиски","country":"RU","coord":{"lon":39.51545,"lat":50.984051}}
{"_id":563551,"name":"Екажево","country":"RU","coord":{"lon":44.823059,"lat":43.212219}}
{"_id":584298,"name":"Ачхой-Мартан","country":"RU","coord":{"lon":45.279999,"lat":43.189999}}
{"_id":841006,"name":"Кочубеевское","country":"RU","coord":{"lon":41.84528,"lat":44.644169}}
{"_id":1486468,"name":"Ялуторовск","country":"RU","coord":{"lon":66.300583,"lat":56.65358}}
{"_id":1490277,"name":"Талица","country":"RU","coord":{"lon":60.021301,"lat":56.880402}}
{"_id":1499163,"name":"Майма","country":"RU","coord":{"lon":85.911392,"lat":52.019718}}
{"_id":1541359,"name":"Лянтор","country":"RU","coord":{"lon":72.155457,"lat":61.61945}}
{"_id":2021066,"name":"Кяхта","country":"RU","coord":{"lon":106.44944,"lat":50.35083}}
{"_id":7289676,"name":"Покачи","country":"RU","coord":{"lon":75.368271,"lat":61.719818}}
{"_id":511865,"name":"Печенга","country":"RU","coord":{"lon":31.170271,"lat":69.525871}}
{"_id":1506499,"name":"Глядянское","country":"RU","coord":{"lon":65.088333,"lat":54.907501}}
{"_id":1506834,"name":"Филимоново","country":"RU","coord":{"lon":95.461113,"lat":56.201111}}
{"_id":1507035,"name":"Дзержинское","country":"RU","coord":{"lon":95.228333,"lat":56.834438}}
{"_id":1507300,"name":"Долгодеревенское","country":"RU","coord":{"lon":61.34444,"lat":55.34444}}
{"_id":1507679,"name":"Чулым","country":"RU","coord":{"lon":80.957222,"lat":55.09972}}
{"_id":1507934,"name":"Червишево","country":"RU","coord":{"lon":65.427818,"lat":56.94635}}
{"_id":1508177,"name":"Черемушки","country":"RU","coord":{"lon":91.39444,"lat":52.83556}}
{"_id":1508217,"name":"Черемшанка","country":"RU","coord":{"lon":60.26804,"lat":56.119202}}
{"_id":1508230,"name":"Черемное","country":"RU","coord":{"lon":83.213333,"lat":53.16972}}
{"_id":1508260,"name":"Новобирилюссы","country":"RU","coord":{"lon":90.666107,"lat":56.951389}}
{"_id":1508285,"name":"Чемал","country":"RU","coord":{"lon":86.004997,"lat":51.41111}}
{"_id":1508427,"name":"Чарышское","country":"RU","coord":{"lon":83.559799,"lat":51.3978}}
{"_id":1508458,"name":"Чаны","country":"RU","coord":{"lon":76.764679,"lat":55.31205}}
{"_id":1508501,"name":"Чадан","country":"RU","coord":{"lon":91.583328,"lat":51.283329}}
{"_id":1508517,"name":"Быстрый Исток","country":"RU","coord":{"lon":84.387299,"lat":52.370998}}
{"_id":1508894,"name":"Боровой","country":"RU","coord":{"lon":86.083328,"lat":55.433331}}
{"_id":1508918,"name":"Боровиха","country":"RU","coord":{"lon":83.837898,"lat":53.507198}}
{"_id":1509008,"name":"Подкаменная Тунгуска","country":"RU","coord":{"lon":90.018059,"lat":61.601109}}
{"_id":1509494,"name":"Болшерече","country":"RU","coord":{"lon":74.627159,"lat":56.092522}}
{"_id":1509929,"name":"Бобровский","country":"RU","coord":{"lon":60.980701,"lat":56.673199}}
{"_id":1509955,"name":"Бобровка","country":"RU","coord":{"lon":61.745499,"lat":54.047001}}
{"_id":1509958,"name":"Бобровка","country":"RU","coord":{"lon":83.876389,"lat":53.183609}}
{"_id":1509999,"name":"Благовещенка","country":"RU","coord":{"lon":79.866669,"lat":52.833328}}
{"_id":1510030,"name":"Бискамжа","country":"RU","coord":{"lon":89.527222,"lat":53.449718}}
{"_id":1510214,"name":"Березово","country":"RU","coord":{"lon":65.041939,"lat":63.938061}}
{"_id":1510335,"name":"Береговой","country":"RU","coord":{"lon":73.219841,"lat":55.173012}}
{"_id":1510377,"name":"Белый Яр","country":"RU","coord":{"lon":91.390282,"lat":53.603889}}
{"_id":1510395,"name":"Беляши","country":"RU","coord":{"lon":87.416672,"lat":49.73333}}
{"_id":1510421,"name":"Белозерское","country":"RU","coord":{"lon":65.584167,"lat":55.821388}}
{"_id":1510451,"name":"Белоярский","country":"RU","coord":{"lon":61.414299,"lat":56.7584}}
{"_id":1510514,"name":"Белогорск","country":"RU","coord":{"lon":88.489723,"lat":55.01778}}
{"_id":1510697,"name":"Байкалово","country":"RU","coord":{"lon":63.76841,"lat":57.398109}}
{"_id":1510709,"name":"Баево","country":"RU","coord":{"lon":80.76667,"lat":53.283329}}
{"_id":1510821,"name":"Барышево","country":"RU","coord":{"lon":83.182198,"lat":54.956402}}
{"_id":1510842,"name":"Барсово","country":"RU","coord":{"lon":73.166672,"lat":61.166672}}
{"_id":1510960,"name":"Балгазын","country":"RU","coord":{"lon":95.199997,"lat":51}}
{"_id":1510998,"name":"Балахта","country":"RU","coord":{"lon":91.599998,"lat":55.380001}}
{"_id":1511135,"name":"Азово","country":"RU","coord":{"lon":73.023666,"lat":54.699718}}
{"_id":1511146,"name":"Азанка","country":"RU","coord":{"lon":64.789268,"lat":58.040119}}
{"_id":1511217,"name":"Ая","country":"RU","coord":{"lon":85.801682,"lat":51.94532}}
{"_id":1511276,"name":"Атагай","country":"RU","coord":{"lon":99.387497,"lat":55.103298}}
{"_id":1511303,"name":"Аскиз","country":"RU","coord":{"lon":90.428329,"lat":53.137218}}
{"_id":1511361,"name":"Артышта","country":"RU","coord":{"lon":86.290901,"lat":54.1222}}
{"_id":1511364,"name":"Артыбаш","country":"RU","coord":{"lon":87.276108,"lat":51.792782}}
{"_id":1511382,"name":"Армизонское","country":"RU","coord":{"lon":67.673607,"lat":55.94611}}
{"_id":1511538,"name":"Антипино","country":"RU","coord":{"lon":65.757553,"lat":57.106789}}
{"_id":1511646,"name":"Андра","country":"RU","coord":{"lon":65.887779,"lat":62.514721}}
{"_id":1511709,"name":"Алзамай","country":"RU","coord":{"lon":98.664398,"lat":55.556198}}
{"_id":1511846,"name":"Александровское","country":"RU","coord":{"lon":85.390556,"lat":56.740829}}
{"_id":1511997,"name":"Акташ","country":"RU","coord":{"lon":87.73333,"lat":50.299999}}
{"_id":1512064,"name":"Ак-Довурак","country":"RU","coord":{"lon":90.599998,"lat":51.183331}}
{"_id":1512101,"name":"Агириш","country":"RU","coord":{"lon":63.02306,"lat":61.924721}}
{"_id":1512102,"name":"Агинское","country":"RU","coord":{"lon":94.900002,"lat":55.259998}}
{"_id":1512210,"name":"Абацкое","country":"RU","coord":{"lon":70.455528,"lat":56.287479}}
{"_id":1512218,"name":"Абан","country":"RU","coord":{"lon":96.059998,"lat":56.669998}}
{"_id":1512223,"name":"Абалак","country":"RU","coord":{"lon":68.594437,"lat":58.128609}}
{"_id":1512238,"name":"Абагур","country":"RU","coord":{"lon":87.252602,"lat":53.730801}}
{"_id":1536648,"name":"Исток","country":"RU","coord":{"lon":60.778889,"lat":56.790859}}
{"_id":1537749,"name":"Иличево","country":"RU","coord":{"lon":91.840279,"lat":53.278889}}
{"_id":1538638,"name":"Локомотивный","country":"RU","coord":{"lon":60.568401,"lat":53.011799}}
{"_id":6267910,"name":"Бадалык","country":"RU","coord":{"lon":92.93,"lat":56.099998}}
{"_id":1538640,"name":"Свободный","country":"RU","coord":{"lon":60.396111,"lat":58.039719}}
{"_id":1538642,"name":"Сибирский","country":"RU","coord":{"lon":83.757698,"lat":53.577702}}
{"_id":1539045,"name":"Малиновский","country":"RU","coord":{"lon":62.839722,"lat":61.195278}}
{"_id":1540484,"name":"Кедровый","country":"RU","coord":{"lon":79.515556,"lat":57.519718}}
{"_id":1540852,"name":"Старокамышинск","country":"RU","coord":{"lon":61.6031,"lat":55.055401}}
{"_id":1540853,"name":"Тимирязевский","country":"RU","coord":{"lon":60.762501,"lat":54.929169}}
{"_id":1540882,"name":"Бажово","country":"RU","coord":{"lon":61.6054,"lat":55.060398}}
{"_id":1540905,"name":"Рощино","country":"RU","coord":{"lon":61.2635,"lat":55.309299}}
{"_id":1544583,"name":"Уйское","country":"RU","coord":{"lon":60.004719,"lat":54.377499}}
{"_id":2012349,"name":"Красный Чикой","country":"RU","coord":{"lon":108.751198,"lat":50.3643}}
{"_id":2012379,"name":"Звездный","country":"RU","coord":{"lon":106.479897,"lat":56.749199}}
{"_id":2012510,"name":"Жирекен","country":"RU","coord":{"lon":117.307602,"lat":52.824902}}
{"_id":2012530,"name":"Жиганск","country":"RU","coord":{"lon":123.371109,"lat":66.769722}}
{"_id":2012532,"name":"Жигалово","country":"RU","coord":{"lon":105.157784,"lat":54.809719}}
{"_id":2012544,"name":"Жемчуг","country":"RU","coord":{"lon":102.459,"lat":51.6861}}
{"_id":2012561,"name":"Железнодорожный","country":"RU","coord":{"lon":102.765282,"lat":57.91222}}
{"_id":2012570,"name":"Жатай","country":"RU","coord":{"lon":129.829437,"lat":62.159439}}
{"_id":2012623,"name":"Заводской","country":"RU","coord":{"lon":132.292221,"lat":43.459721}}
{"_id":2012655,"name":"Заречный","country":"RU","coord":{"lon":107.51445,"lat":51.851391}}
{"_id":2012728,"name":"Закаменск","country":"RU","coord":{"lon":103.286301,"lat":50.3741}}
{"_id":2012735,"name":"Заиграево","country":"RU","coord":{"lon":108.270302,"lat":51.833599}}
{"_id":2012956,"name":"Ербогачен","country":"RU","coord":{"lon":108.010834,"lat":61.276669}}
{"_id":2013030,"name":"Екатериновка","country":"RU","coord":{"lon":133.047226,"lat":42.924999}}
{"_id":2013032,"name":"Екатеринославка","country":"RU","coord":{"lon":129.113861,"lat":50.37336}}
{"_id":2013089,"name":"Ярославский","country":"RU","coord":{"lon":132.207214,"lat":44.168331}}
{"_id":2013176,"name":"Яковлевка","country":"RU","coord":{"lon":133.477219,"lat":44.424999}}
{"_id":2013216,"name":"Высокогорный","country":"RU","coord":{"lon":139.149994,"lat":50.116669}}
{"_id":2013272,"name":"Воздвиженка","country":"RU","coord":{"lon":131.949997,"lat":43.900002}}
{"_id":2013279,"name":"Восток","country":"RU","coord":{"lon":135.883331,"lat":46.485561}}
{"_id":2013326,"name":"Волочаевка Вторая","country":"RU","coord":{"lon":134.578323,"lat":48.56778}}
{"_id":2013375,"name":"Витим","country":"RU","coord":{"lon":112.557777,"lat":59.451111}}
{"_id":2013406,"name":"Видим","country":"RU","coord":{"lon":103.110603,"lat":56.408798}}
{"_id":2013441,"name":"Вершино-Шахтаминский","country":"RU","coord":{"lon":117.886803,"lat":51.301201}}
{"_id":2013459,"name":"Верх-Усугли","country":"RU","coord":{"lon":115.166672,"lat":52.700001}}
{"_id":2013639,"name":"Верхневилюйск","country":"RU","coord":{"lon":120.316673,"lat":63.445278}}
{"_id":2013921,"name":"Уст-Куйга","country":"RU","coord":{"lon":135.600006,"lat":70.01667}}
{"_id":2013942,"name":"Уст-Карск","country":"RU","coord":{"lon":118.807701,"lat":52.701099}}
{"_id":2014038,"name":"Ушумун","country":"RU","coord":{"lon":126.533333,"lat":52.783329}}
{"_id":2014369,"name":"Улеты","country":"RU","coord":{"lon":112.484901,"lat":51.357201}}
{"_id":2014694,"name":"Тырма","country":"RU","coord":{"lon":132.166672,"lat":50.083328}}
{"_id":2014705,"name":"Тырет Первая","country":"RU","coord":{"lon":102.310562,"lat":53.67028}}
{"_id":2014743,"name":"Тыгда","country":"RU","coord":{"lon":126.333328,"lat":53.116669}}
{"_id":2015136,"name":"Тополево","country":"RU","coord":{"lon":135.197495,"lat":48.499439}}
{"_id":2015179,"name":"Томмот","country":"RU","coord":{"lon":126.292503,"lat":58.95639}}
{"_id":2015217,"name":"Токур","country":"RU","coord":{"lon":132.899994,"lat":53.133331}}
{"_id":2015428,"name":"Тайтурка","country":"RU","coord":{"lon":103.460831,"lat":52.869171}}
{"_id":2015469,"name":"Новонукуцкий","country":"RU","coord":{"lon":102.7117,"lat":53.700199}}
{"_id":2015545,"name":"Тарбагатай","country":"RU","coord":{"lon":107.360199,"lat":51.48032}}
{"_id":2015547,"name":"Тарбагатай","country":"RU","coord":{"lon":109.093102,"lat":51.174702}}
{"_id":2015686,"name":"Талакан","country":"RU","coord":{"lon":130.366669,"lat":50.316669}}
{"_id":2015707,"name":"Тахтамыгда","country":"RU","coord":{"lon":123.566673,"lat":54.099998}}
{"_id":2015842,"name":"Свирск","country":"RU","coord":{"lon":103.332497,"lat":53.085831}}
{"_id":2015852,"name":"Светлая","country":"RU","coord":{"lon":138.329727,"lat":46.538891}}
{"_id":2015913,"name":"Сунтар","country":"RU","coord":{"lon":117.631943,"lat":62.14444}}
{"_id":2016110,"name":"Сретенск","country":"RU","coord":{"lon":117.709297,"lat":52.2453}}
{"_id":2016170,"name":"Среднебелая","country":"RU","coord":{"lon":128.010559,"lat":50.659439}}
{"_id":2016183,"name":"Спасское","country":"RU","coord":{"lon":132.796936,"lat":44.610828}}
{"_id":2016205,"name":"Сотниково","country":"RU","coord":{"lon":107.479073,"lat":51.88446}}
{"_id":2016216,"name":"Сосново-Озерское","country":"RU","coord":{"lon":111.541801,"lat":52.524899}}
{"_id":2016277,"name":"Соловевск","country":"RU","coord":{"lon":124.433327,"lat":54.23333}}
{"_id":2016305,"name":"Солнечный","country":"RU","coord":{"lon":137.5,"lat":60.416672}}
{"_id":2016307,"name":"Солнечный","country":"RU","coord":{"lon":136.631943,"lat":50.72139}}
{"_id":2016308,"name":"Солнечный","country":"RU","coord":{"lon":137.033325,"lat":50.583328}}
{"_id":2016402,"name":"Смоляниново","country":"RU","coord":{"lon":132.467499,"lat":43.295559}}
{"_id":2016405,"name":"Смоленка","country":"RU","coord":{"lon":113.497398,"lat":52.135231}}
{"_id":2016430,"name":"Славянка","country":"RU","coord":{"lon":131.38472,"lat":42.863331}}
{"_id":2016474,"name":"Сиваковка","country":"RU","coord":{"lon":132.363892,"lat":44.476669}}
{"_id":2016477,"name":"Сиваки","country":"RU","coord":{"lon":126.75,"lat":52.633331}}
{"_id":2016628,"name":"Штыково","country":"RU","coord":{"lon":132.37056,"lat":43.38306}}
{"_id":2016651,"name":"Шкотово","country":"RU","coord":{"lon":132.362503,"lat":43.33194}}
{"_id":2016680,"name":"Широкий","country":"RU","coord":{"lon":129.522995,"lat":49.757999}}
{"_id":2016733,"name":"Шестаково","country":"RU","coord":{"lon":103.959999,"lat":56.491501}}
{"_id":2016757,"name":"Шелопугино","country":"RU","coord":{"lon":117.559898,"lat":51.651402}}
{"_id":2016907,"name":"Северомуйск","country":"RU","coord":{"lon":113.426666,"lat":56.14806}}
{"_id":2016942,"name":"Серышево","country":"RU","coord":{"lon":128.378616,"lat":51.09333}}
{"_id":2016961,"name":"Сергеевка","country":"RU","coord":{"lon":133.348053,"lat":43.339169}}
{"_id":2017042,"name":"Селихино","country":"RU","coord":{"lon":137.499573,"lat":50.367161}}
{"_id":2017063,"name":"Селендума","country":"RU","coord":{"lon":106.240562,"lat":50.913059}}
{"_id":2017155,"name":"Саскылах","country":"RU","coord":{"lon":114.083328,"lat":71.916672}}
{"_id":2017364,"name":"Русский","country":"RU","coord":{"lon":131.864166,"lat":43.014721}}
{"_id":2017377,"name":"Рудный","country":"RU","coord":{"lon":134.959442,"lat":44.28278}}
{"_id":2017378,"name":"Рудногорск","country":"RU","coord":{"lon":103.7519,"lat":57.263901}}
{"_id":2017384,"name":"Рудная Пристан","country":"RU","coord":{"lon":135.8116,"lat":44.361401}}
{"_id":2017409,"name":"Ромны","country":"RU","coord":{"lon":129.289383,"lat":50.724979}}
{"_id":2017478,"name":"Раздолное","country":"RU","coord":{"lon":131.916672,"lat":43.549999}}
{"_id":2017537,"name":"Путятин","country":"RU","coord":{"lon":132.417221,"lat":42.861938}}
{"_id":2017626,"name":"Приморский","country":"RU","coord":{"lon":131.587494,"lat":43.098331}}
{"_id":2017632,"name":"Приисковый","country":"RU","coord":{"lon":116.633331,"lat":51.933331}}
{"_id":2017646,"name":"Приаргунск","country":"RU","coord":{"lon":119.101196,"lat":50.369099}}
{"_id":2017648,"name":"Приамурский","country":"RU","coord":{"lon":134.902786,"lat":48.521671}}
{"_id":2017658,"name":"Преображение","country":"RU","coord":{"lon":133.906387,"lat":42.901939}}
{"_id":2017756,"name":"Попова","country":"RU","coord":{"lon":131.722778,"lat":42.960281}}
{"_id":2017842,"name":"Покосное","country":"RU","coord":{"lon":101.053612,"lat":55.525829}}
{"_id":2017851,"name":"Пограничный","country":"RU","coord":{"lon":131.376938,"lat":44.406391}}
{"_id":2017979,"name":"Петропавловка","country":"RU","coord":{"lon":105.319603,"lat":50.611401}}
{"_id":2018021,"name":"Первомайский","country":"RU","coord":{"lon":115.625427,"lat":51.670132}}
{"_id":2018069,"name":"Пеледуй","country":"RU","coord":{"lon":112.740562,"lat":59.628891}}
{"_id":2018207,"name":"Оек","country":"RU","coord":{"lon":104.455559,"lat":52.586109}}
{"_id":2018214,"name":"Овсянка","country":"RU","coord":{"lon":126.883331,"lat":53.583328}}
{"_id":2018301,"name":"Оса","country":"RU","coord":{"lon":103.876938,"lat":53.387218}}
{"_id":2018365,"name":"Орловский","country":"RU","coord":{"lon":114.833328,"lat":51.033329}}
{"_id":2018436,"name":"Онохой","country":"RU","coord":{"lon":108.074699,"lat":51.931999}}
{"_id":2018567,"name":"Оленек","country":"RU","coord":{"lon":112.469101,"lat":68.509247}}
{"_id":2018813,"name":"Новый Уоян","country":"RU","coord":{"lon":111.705559,"lat":56.157219}}
{"_id":2018857,"name":"Новосысоевка","country":"RU","coord":{"lon":133.364166,"lat":44.235001}}
{"_id":2018864,"name":"Новошахтинский","country":"RU","coord":{"lon":132.151382,"lat":44.025002}}
{"_id":2018888,"name":"Новопокровка","country":"RU","coord":{"lon":134.508896,"lat":45.853062}}
{"_id":2018896,"name":"Новопавловка","country":"RU","coord":{"lon":109.209099,"lat":51.217201}}
{"_id":2018925,"name":"Новокручининский","country":"RU","coord":{"lon":113.76667,"lat":51.783329}}
{"_id":2018930,"name":"Новокижингинск","country":"RU","coord":{"lon":109.591698,"lat":51.6115}}
{"_id":2018964,"name":"Новобурейский","country":"RU","coord":{"lon":129.877396,"lat":49.798}}
{"_id":2019004,"name":"Новая Игирма","country":"RU","coord":{"lon":103.911201,"lat":57.1334}}
{"_id":2019009,"name":"Новая Брян","country":"RU","coord":{"lon":108.269096,"lat":51.7159}}
{"_id":2019118,"name":"Нижний Цасучей","country":"RU","coord":{"lon":115.133331,"lat":50.51667}}
{"_id":2019135,"name":"Нижний Куранах","country":"RU","coord":{"lon":125.486938,"lat":58.835281}}
{"_id":2019167,"name":"Нижний Бестях","country":"RU","coord":{"lon":129.908615,"lat":61.959438}}
{"_id":2019296,"name":"Невер","country":"RU","coord":{"lon":124.166672,"lat":53.98333}}
{"_id":2019323,"name":"Нерчинский Завод","country":"RU","coord":{"lon":119.610001,"lat":51.3088}}
{"_id":2019388,"name":"Некрасовка","country":"RU","coord":{"lon":135.232498,"lat":48.352501}}
{"_id":2019429,"name":"Наушки","country":"RU","coord":{"lon":106.10556,"lat":50.382778}}
{"_id":2019710,"name":"Мухоршибир","country":"RU","coord":{"lon":107.829971,"lat":51.049858}}
{"_id":2019718,"name":"Мухен","country":"RU","coord":{"lon":136.100006,"lat":48.099998}}
{"_id":2019867,"name":"Мохсоголлох","country":"RU","coord":{"lon":128.920273,"lat":61.46806}}
{"_id":2019884,"name":"Могзон","country":"RU","coord":{"lon":111.960602,"lat":51.7435}}
{"_id":2019935,"name":"Многовершинный","country":"RU","coord":{"lon":139.924164,"lat":53.93528}}
{"_id":2019936,"name":"Многоудобное","country":"RU","coord":{"lon":132.438889,"lat":43.46917}}
{"_id":2019945,"name":"Мишелевка","country":"RU","coord":{"lon":103.171944,"lat":52.857498}}
{"_id":2020208,"name":"Марково","country":"RU","coord":{"lon":107.088058,"lat":57.32056}}
{"_id":2020311,"name":"Мамакан","country":"RU","coord":{"lon":114.002777,"lat":57.816109}}
{"_id":2020559,"name":"Маккавеево","country":"RU","coord":{"lon":113.945396,"lat":51.75325}}
{"_id":2020584,"name":"Магистралный","country":"RU","coord":{"lon":107.445831,"lat":56.172501}}
{"_id":2020595,"name":"Маган","country":"RU","coord":{"lon":129.527786,"lat":62.105282}}
{"_id":2020626,"name":"Сергеевка","country":"RU","coord":{"lon":131.656113,"lat":44.334999}}
{"_id":2020687,"name":"Лучки","country":"RU","coord":{"lon":132.256393,"lat":44.28722}}
{"_id":2020707,"name":"Лондоко","country":"RU","coord":{"lon":131.983337,"lat":49.033329}}
{"_id":2020738,"name":"Литовко","country":"RU","coord":{"lon":135.174164,"lat":49.236111}}
{"_id":2020744,"name":"Листвянка","country":"RU","coord":{"lon":104.869301,"lat":51.8535}}
{"_id":2020752,"name":"Липовцы","country":"RU","coord":{"lon":131.724442,"lat":44.201389}}
{"_id":2020824,"name":"Лермонтовка","country":"RU","coord":{"lon":134.338333,"lat":47.145279}}
{"_id":2020848,"name":"Ленинский","country":"RU","coord":{"lon":125.430557,"lat":58.577782}}
{"_id":2020871,"name":"Лебединый","country":"RU","coord":{"lon":125.51667,"lat":58.51667}}
{"_id":2020887,"name":"Лазо","country":"RU","coord":{"lon":133.655823,"lat":45.871941}}
{"_id":2020888,"name":"Лазо","country":"RU","coord":{"lon":133.901382,"lat":43.381672}}
{"_id":2021017,"name":"Кысыл-Сыр","country":"RU","coord":{"lon":122.761673,"lat":63.898609}}
{"_id":2021031,"name":"Кырен","country":"RU","coord":{"lon":102.1408,"lat":51.6828}}
{"_id":2021041,"name":"Кыра","country":"RU","coord":{"lon":111.975304,"lat":49.577599}}
{"_id":2021207,"name":"Курорт-Дарасун","country":"RU","coord":{"lon":113.715988,"lat":51.199051}}
{"_id":2021370,"name":"Кулдур","country":"RU","coord":{"lon":131.633331,"lat":49.216671}}
{"_id":2021434,"name":"Кудара-Сомон","country":"RU","coord":{"lon":107.40139,"lat":50.15472}}
{"_id":2021504,"name":"Кропоткин","country":"RU","coord":{"lon":115.321671,"lat":58.509441}}
{"_id":2021613,"name":"Краснореченский","country":"RU","coord":{"lon":135.353195,"lat":44.626499}}
{"_id":2021766,"name":"Корфовский","country":"RU","coord":{"lon":135.056396,"lat":48.21833}}
{"_id":2021799,"name":"Константиновка","country":"RU","coord":{"lon":127.98333,"lat":49.616669}}
{"_id":2021908,"name":"Кокуй","country":"RU","coord":{"lon":117.552902,"lat":52.203701}}
{"_id":2021954,"name":"Князе-Волконское","country":"RU","coord":{"lon":135.456665,"lat":48.464169}}
{"_id":2021980,"name":"Ключевский","country":"RU","coord":{"lon":119.451897,"lat":53.5317}}
{"_id":2021992,"name":"Кличка","country":"RU","coord":{"lon":117.996002,"lat":50.445702}}
{"_id":2022003,"name":"Кижинга","country":"RU","coord":{"lon":109.909698,"lat":51.846199}}
{"_id":2022024,"name":"Китой","country":"RU","coord":{"lon":103.900002,"lat":52.599998}}
{"_id":2022143,"name":"Хужир","country":"RU","coord":{"lon":107.339722,"lat":53.19389}}
{"_id":2022174,"name":"Хурба","country":"RU","coord":{"lon":136.881943,"lat":50.407219}}
{"_id":2022232,"name":"Хребтовая","country":"RU","coord":{"lon":104.249397,"lat":56.703201}}
{"_id":2022304,"name":"Хоринск","country":"RU","coord":{"lon":109.772598,"lat":52.165699}}
{"_id":2022317,"name":"Хор","country":"RU","coord":{"lon":134.946396,"lat":47.886108}}
{"_id":2022342,"name":"Хомутово","country":"RU","coord":{"lon":104.402496,"lat":52.465832}}
{"_id":2022369,"name":"Холтосон","country":"RU","coord":{"lon":103.3097,"lat":50.2981}}
{"_id":2022394,"name":"Холбон","country":"RU","coord":{"lon":116.25,"lat":51.883331}}
{"_id":2022454,"name":"Хинганск","country":"RU","coord":{"lon":131.183334,"lat":49.116669}}
{"_id":2022463,"name":"Хилок","country":"RU","coord":{"lon":110.467598,"lat":51.367401}}
{"_id":2022773,"name":"Хандыга","country":"RU","coord":{"lon":135.600006,"lat":62.666672}}
{"_id":2023029,"name":"Казачинское","country":"RU","coord":{"lon":107.580002,"lat":56.26667}}
{"_id":2023094,"name":"Карымское","country":"RU","coord":{"lon":114.349998,"lat":51.616669}}
{"_id":2023190,"name":"Кангалассы","country":"RU","coord":{"lon":129.962784,"lat":62.34639}}
{"_id":2023249,"name":"Каменка","country":"RU","coord":{"lon":136.012222,"lat":44.45694}}
{"_id":2023286,"name":"Калга","country":"RU","coord":{"lon":118.898003,"lat":50.925098}}
{"_id":2023298,"name":"Калангуй","country":"RU","coord":{"lon":116.51667,"lat":51.01667}}
{"_id":2023324,"name":"Кадая","country":"RU","coord":{"lon":119.2911,"lat":50.932701}}
{"_id":2023333,"name":"Качуг","country":"RU","coord":{"lon":105.881668,"lat":53.96056}}
{"_id":2023360,"name":"Известковый","country":"RU","coord":{"lon":131.550003,"lat":48.98333}}
{"_id":2023377,"name":"Иволгинск","country":"RU","coord":{"lon":107.283737,"lat":51.749191}}
{"_id":2023427,"name":"Исток","country":"RU","coord":{"lon":106.247498,"lat":52.09528}}
{"_id":2023584,"name":"Имени Полины Осипенко","country":"RU","coord":{"lon":136.485306,"lat":52.420101}}
{"_id":2023778,"name":"Гусиное Озеро","country":"RU","coord":{"lon":106.261391,"lat":51.114441}}
{"_id":2023918,"name":"Горные Ключи","country":"RU","coord":{"lon":133.5,"lat":45.25}}
{"_id":2023920,"name":"Горный","country":"RU","coord":{"lon":136.399994,"lat":50.75}}
{"_id":2023929,"name":"Горнореченский","country":"RU","coord":{"lon":135.113297,"lat":44.262402}}
{"_id":2023943,"name":"Горин","country":"RU","coord":{"lon":136.666946,"lat":51.19833}}
{"_id":2024122,"name":"Газимурский Завод","country":"RU","coord":{"lon":118.326599,"lat":51.546101}}
{"_id":2024461,"name":"Екимчан","country":"RU","coord":{"lon":132.966675,"lat":53.066669}}
{"_id":2024579,"name":"Джида","country":"RU","coord":{"lon":106.180557,"lat":50.677219}}
{"_id":2024626,"name":"Джебарики-Хая","country":"RU","coord":{"lon":135.800003,"lat":62.216671}}
{"_id":2024812,"name":"Дулдурга","country":"RU","coord":{"lon":113.593063,"lat":50.676109}}
{"_id":2024848,"name":"Дровяная","country":"RU","coord":{"lon":113.033333,"lat":51.583328}}
{"_id":2024858,"name":"Достоевка","country":"RU","coord":{"lon":133.498062,"lat":44.335831}}
{"_id":2024893,"name":"Домна","country":"RU","coord":{"lon":113.157303,"lat":51.897121}}
{"_id":2025121,"name":"Дарасун","country":"RU","coord":{"lon":114,"lat":51.666672}}
{"_id":2025241,"name":"Чурапча","country":"RU","coord":{"lon":132.432495,"lat":62.002499}}
{"_id":2025256,"name":"Чумикан","country":"RU","coord":{"lon":135.315002,"lat":54.71833}}
{"_id":2025286,"name":"Чугуевка","country":"RU","coord":{"lon":133.863327,"lat":44.165279}}
{"_id":2025325,"name":"Чкаловское","country":"RU","coord":{"lon":133.04361,"lat":44.839169}}
{"_id":2025456,"name":"Чернышевский","country":"RU","coord":{"lon":112.47139,"lat":63.012779}}
{"_id":2025458,"name":"Чернышевск","country":"RU","coord":{"lon":117.017403,"lat":52.5243}}
{"_id":2025460,"name":"Чернышевка","country":"RU","coord":{"lon":133.118896,"lat":44.19389}}
{"_id":2026023,"name":"Букачача","country":"RU","coord":{"lon":116.916672,"lat":52.98333}}
{"_id":2026160,"name":"Борогонцы","country":"RU","coord":{"lon":131.168335,"lat":62.668331}}
{"_id":2026544,"name":"Бохан","country":"RU","coord":{"lon":103.7714,"lat":53.153}}
{"_id":2026657,"name":"Биракан","country":"RU","coord":{"lon":131.699997,"lat":49.01667}}
{"_id":2026659,"name":"Бира","country":"RU","coord":{"lon":132.466675,"lat":49}}
{"_id":2026708,"name":"Бичура","country":"RU","coord":{"lon":107.602219,"lat":50.588058}}
{"_id":2026786,"name":"Березовый","country":"RU","coord":{"lon":135.699997,"lat":51.666672}}
{"_id":2027002,"name":"Баянгол","country":"RU","coord":{"lon":103.465599,"lat":50.697701}}
{"_id":2027004,"name":"Баяндай","country":"RU","coord":{"lon":105.513893,"lat":53.066109}}
{"_id":2027042,"name":"Батагай-Алыта","country":"RU","coord":{"lon":130.411392,"lat":67.80056}}
{"_id":2027044,"name":"Батагай","country":"RU","coord":{"lon":134.633331,"lat":67.633331}}
{"_id":2027173,"name":"Баляга","country":"RU","coord":{"lon":108.920998,"lat":51.1507}}
{"_id":2027184,"name":"Балей","country":"RU","coord":{"lon":116.633331,"lat":51.599998}}
{"_id":2027196,"name":"Балахнинский","country":"RU","coord":{"lon":114.276939,"lat":58.010559}}
{"_id":2027198,"name":"Балаганск","country":"RU","coord":{"lon":103.054443,"lat":54.010281}}
{"_id":2027244,"name":"Багдарин","country":"RU","coord":{"lon":113.599998,"lat":54.433331}}
{"_id":2027275,"name":"Бада","country":"RU","coord":{"lon":109.871696,"lat":51.391998}}
{"_id":2027277,"name":"Бабстово","country":"RU","coord":{"lon":132.483337,"lat":48.116669}}
{"_id":2027786,"name":"Амга","country":"RU","coord":{"lon":131.960831,"lat":60.895279}}
{"_id":2027859,"name":"Алмазный","country":"RU","coord":{"lon":114.327782,"lat":62.449169}}
{"_id":2027911,"name":"Алексеевская","country":"RU","coord":{"lon":108.400002,"lat":57.849998}}
{"_id":2027933,"name":"Александровский Завод","country":"RU","coord":{"lon":117.937401,"lat":50.923698}}
{"_id":2028164,"name":"Депутацкий","country":"RU","coord":{"lon":139.899994,"lat":69.300003}}
{"_id":2055868,"name":"Янтал","country":"RU","coord":{"lon":105.254204,"lat":56.847099}}
{"_id":2115627,"name":"Уст-Камчацк Старый","country":"RU","coord":{"lon":162.477783,"lat":56.227779}}
{"_id":2119283,"name":"Зырянка","country":"RU","coord":{"lon":150.850006,"lat":65.75}}
{"_id":2119370,"name":"Заветы Илича","country":"RU","coord":{"lon":140.249374,"lat":49.029419}}
{"_id":2119447,"name":"Южно-Курильск","country":"RU","coord":{"lon":145.85556,"lat":44.03056}}
{"_id":2119626,"name":"Ягодное","country":"RU","coord":{"lon":149.666672,"lat":62.549999}}
{"_id":2119640,"name":"Яблочный","country":"RU","coord":{"lon":142.066116,"lat":47.166111}}
{"_id":2119701,"name":"Восток","country":"RU","coord":{"lon":148.899994,"lat":48.916672}}
{"_id":2119964,"name":"Вахрушев","country":"RU","coord":{"lon":142.966675,"lat":48.98333}}
{"_id":2120047,"name":"Уст-Омчуг","country":"RU","coord":{"lon":149.633331,"lat":61.150002}}
{"_id":2120129,"name":"Уптар","country":"RU","coord":{"lon":150.916672,"lat":59.75}}
{"_id":2120257,"name":"Углезаводск","country":"RU","coord":{"lon":142.616669,"lat":47.316669}}
{"_id":2120261,"name":"Углегорск","country":"RU","coord":{"lon":142.033325,"lat":49.083328}}
{"_id":2120400,"name":"Тунгор","country":"RU","coord":{"lon":142.95639,"lat":53.380829}}
{"_id":2120452,"name":"Троицкое","country":"RU","coord":{"lon":142.636887,"lat":46.92057}}
{"_id":2120769,"name":"Талая","country":"RU","coord":{"lon":152.75,"lat":61.383331}}
{"_id":2121025,"name":"Среднеколымск","country":"RU","coord":{"lon":153.683334,"lat":67.449997}}
{"_id":2121102,"name":"Сокол","country":"RU","coord":{"lon":150.916672,"lat":59.883331}}
{"_id":2121103,"name":"Сокол","country":"RU","coord":{"lon":142.75,"lat":47.23333}}
{"_id":2121197,"name":"Синегоре","country":"RU","coord":{"lon":150.47699,"lat":62.078812}}
{"_id":2121324,"name":"Шебунино","country":"RU","coord":{"lon":141.860275,"lat":46.433891}}
{"_id":2122090,"name":"Певек","country":"RU","coord":{"lon":170.313324,"lat":69.700829}}
{"_id":2122229,"name":"Паратунка","country":"RU","coord":{"lon":158.233337,"lat":52.950001}}
{"_id":2122256,"name":"Палатка","country":"RU","coord":{"lon":150.899994,"lat":60.099998}}
{"_id":2122293,"name":"Озерновский","country":"RU","coord":{"lon":156.516663,"lat":51.5}}
{"_id":2122334,"name":"Отрада","country":"RU","coord":{"lon":145.863892,"lat":44.069439}}
{"_id":2122414,"name":"Оротукан","country":"RU","coord":{"lon":151.699997,"lat":62.26667}}
{"_id":2122783,"name":"Ноглики","country":"RU","coord":{"lon":143.166672,"lat":51.833328}}
{"_id":2123100,"name":"Мяунджа","country":"RU","coord":{"lon":147.185837,"lat":63.049438}}
{"_id":2123292,"name":"Мгачи","country":"RU","coord":{"lon":142.266663,"lat":51.049999}}
{"_id":2123371,"name":"Майский","country":"RU","coord":{"lon":140.205276,"lat":48.997532}}
{"_id":2123614,"name":"Макаров","country":"RU","coord":{"lon":142.800003,"lat":48.633331}}
{"_id":2123621,"name":"Маго","country":"RU","coord":{"lon":140.18222,"lat":53.251389}}
{"_id":2123688,"name":"Лососина","country":"RU","coord":{"lon":140.310638,"lat":48.997501}}
{"_id":2123805,"name":"Леонидово","country":"RU","coord":{"lon":142.866669,"lat":49.283329}}
{"_id":2123836,"name":"Лазарев","country":"RU","coord":{"lon":141.513062,"lat":52.224998}}
{"_id":2123979,"name":"Курилск","country":"RU","coord":{"lon":147.883331,"lat":45.23333}}
{"_id":2124187,"name":"Красногорск","country":"RU","coord":{"lon":142.100006,"lat":48.400002}}
{"_id":2124611,"name":"Холодный","country":"RU","coord":{"lon":147.949997,"lat":62.716671}}
{"_id":2125472,"name":"Горнозаводск","country":"RU","coord":{"lon":141.847214,"lat":46.562222}}
{"_id":2125693,"name":"Евенск","country":"RU","coord":{"lon":159.233337,"lat":61.950001}}
{"_id":2125711,"name":"Ессо","country":"RU","coord":{"lon":158.699997,"lat":55.933331}}
{"_id":2126018,"name":"Де-Кастри","country":"RU","coord":{"lon":140.783325,"lat":51.466671}}
{"_id":2126250,"name":"Чехов","country":"RU","coord":{"lon":141.978897,"lat":47.44278}}
{"_id":2126359,"name":"Быков","country":"RU","coord":{"lon":142.550003,"lat":47.316669}}
{"_id":2126493,"name":"Бошняково","country":"RU","coord":{"lon":142.166672,"lat":49.633331}}
{"_id":2126638,"name":"Богородское","country":"RU","coord":{"lon":140.445557,"lat":52.365829}}
{"_id":2126710,"name":"Беринговский","country":"RU","coord":{"lon":179.316666,"lat":63.049999}}
{"_id":2126785,"name":"Белая Гора","country":"RU","coord":{"lon":146.416672,"lat":68.533333}}
{"_id":2609904,"name":"Донское","country":"RU","coord":{"lon":19.96821,"lat":54.938419}}
{"_id":4031574,"name":"Провидения","country":"RU","coord":{"lon":-173.300003,"lat":64.383331}}
{"_id":4031625,"name":"Лорино","country":"RU","coord":{"lon":-171.716675,"lat":65.5}}
{"_id":4031637,"name":"Лаврентия","country":"RU","coord":{"lon":-171,"lat":65.583328}}
{"_id":6269121,"name":"Гражданка","country":"RU","coord":{"lon":133.284439,"lat":44.187778}}
{"_id":6610370,"name":"Чистые Боры","country":"RU","coord":{"lon":41.627781,"lat":58.364719}}
{"_id":6696921,"name":"Североморск-3","country":"RU","coord":{"lon":33.726311,"lat":68.878616}}
{"_id":6930055,"name":"Муромцево","country":"RU","coord":{"lon":40.89901,"lat":55.930161}}
{"_id":6930488,"name":"Нежданинское","country":"RU","coord":{"lon":139.048462,"lat":62.505192}}
{"_id":6930743,"name":"Волочаевское","country":"RU","coord":{"lon":20.23613,"lat":54.69606}}
{"_id":6930874,"name":"Шикотан","country":"RU","coord":{"lon":146.721375,"lat":43.79985}}
{"_id":6931086,"name":"Пересвет","country":"RU","coord":{"lon":38.176121,"lat":56.423019}}
{"_id":7115017,"name":"Темерник","country":"RU","coord":{"lon":39.74493,"lat":47.297859}}
{"_id":7117224,"name":"Прибрежный","country":"RU","coord":{"lon":49.85836,"lat":53.486622}}
{"_id":7458389,"name":"Кусак","country":"RU","coord":{"lon":78.933701,"lat":53.223801}}
{"_id":7536147,"name":"Сингапай","country":"RU","coord":{"lon":72.660721,"lat":61.154518}}
{"_id":7601828,"name":"Ногинск-9","country":"RU","coord":{"lon":38.50013,"lat":56.066811}}
{"_id":524901,"name":"МОсква","country":"RU","coord":{"lon":37.615555,"lat":55.75222}}
{"_id":552548,"name":"Республика Карелия","country":"RU","coord":{"lon":32.5,"lat":64}}
{"_id":538032,"name":"Куйковарака","country":"RU","coord":{"lon":33.066666,"lat":64.48333}}
{"_id":571719,"name":"Братовщина","country":"RU","coord":{"lon":37.883331,"lat":56.049999}}
{"_id":526186,"name":"Мисирево","country":"RU","coord":{"lon":36.75,"lat":56.266666}}
{"_id":461835,"name":"Зябликово","country":"RU","coord":{"lon":37.747501,"lat":55.621387}}
{"_id":565197,"name":"Дорогомилово","country":"RU","coord":{"lon":37.561668,"lat":55.744999}}
{"_id":536398,"name":"Лефортово","country":"RU","coord":{"lon":37.692501,"lat":55.760555}}
{"_id":530123,"name":"Малые Крутицы","country":"RU","coord":{"lon":37.866669,"lat":55.75}}
{"_id":503761,"name":"Путилково","country":"RU","coord":{"lon":37.390556,"lat":55.866112}}
{"_id":465476,"name":"Захарково","country":"RU","coord":{"lon":37.450001,"lat":55.849998}}
{"_id":6417876,"name":"Нагорное","country":"RU","coord":{"lon":37.627499,"lat":55.904167}}
{"_id":535966,"name":"Леоново","country":"RU","coord":{"lon":37.644444,"lat":55.842499}}
{"_id":529368,"name":"Марфино","country":"RU","coord":{"lon":37.382221,"lat":55.702778}}
{"_id":574675,"name":"Большая Сетунь","country":"RU","coord":{"lon":37.416668,"lat":55.716667}}
{"_id":516306,"name":"Обухово","country":"RU","coord":{"lon":38.375557,"lat":55.621944}}
{"_id":511153,"name":"Перово","country":"RU","coord":{"lon":37.770279,"lat":55.740555}}
{"_id":462755,"name":"Жуковский","country":"RU","coord":{"lon":38.120277,"lat":55.59528}}
{"_id":463355,"name":"Железнодорожный","country":"RU","coord":{"lon":38.004166,"lat":55.750278}}
{"_id":537007,"name":"Лапинлакша","country":"RU","coord":{"lon":30.566668,"lat":65.583336}}
{"_id":467934,"name":"Елино","country":"RU","coord":{"lon":36.766666,"lat":56.25}}
{"_id":526730,"name":"Михайловское","country":"RU","coord":{"lon":36.75,"lat":56.233334}}
{"_id":513921,"name":"Отрада","country":"RU","coord":{"lon":36.733334,"lat":56.216667}}
{"_id":481491,"name":"Троицкое","country":"RU","coord":{"lon":36.716667,"lat":56.200001}}
{"_id":495391,"name":"Щёкино","country":"RU","coord":{"lon":36.683334,"lat":56.133331}}
{"_id":482992,"name":"Тиликтино","country":"RU","coord":{"lon":36.599998,"lat":56.099998}}
{"_id":502131,"name":"Репниково","country":"RU","coord":{"lon":37.480556,"lat":55.183334}}
{"_id":6417154,"name":"Аеропорт","country":"RU","coord":{"lon":37.839722,"lat":55.414444}}
{"_id":484912,"name":"Таганский","country":"RU","coord":{"lon":37.666668,"lat":55.733334}}
{"_id":536199,"name":"Ленинградская Область","country":"RU","coord":{"lon":32,"lat":60}}
{"_id":472625,"name":"Волково","country":"RU","coord":{"lon":30.364445,"lat":59.898056}}
{"_id":820024,"name":"Новотушино","country":"RU","coord":{"lon":37.362221,"lat":55.846943}}
{"_id":514178,"name":"Остров","country":"RU","coord":{"lon":37.844444,"lat":55.585278}}
{"_id":501187,"name":"Ростокино","country":"RU","coord":{"lon":37.660831,"lat":55.834167}}
{"_id":484449,"name":"Тарасовка","country":"RU","coord":{"lon":37.81889,"lat":55.963612}}
{"_id":505597,"name":"Правдинский","country":"RU","coord":{"lon":37.849998,"lat":56.066666}}
{"_id":496158,"name":"Шаблыкино","country":"RU","coord":{"lon":38.549999,"lat":56.366669}}
{"_id":466285,"name":"Юрцева","country":"RU","coord":{"lon":38.683334,"lat":56.283333}}
{"_id":563076,"name":"Фёдоровское","country":"RU","coord":{"lon":38.866669,"lat":56.116669}}
{"_id":502622,"name":"Ратмирово","country":"RU","coord":{"lon":38.674442,"lat":55.290279}}
{"_id":462942,"name":"Житницкая","country":"RU","coord":{"lon":35.566666,"lat":62.433334}}
{"_id":583491,"name":"Алабушево","country":"RU","coord":{"lon":37.150002,"lat":56.009998}}
{"_id":471971,"name":"Воронки","country":"RU","coord":{"lon":37.270557,"lat":55.794998}}
{"_id":553121,"name":"Канищево","country":"RU","coord":{"lon":39.657223,"lat":54.676388}}
{"_id":6198512,"name":"Большие Вележи","country":"RU","coord":{"lon":47.997223,"lat":56.15778}}
{"_id":6198159,"name":"Шуйка","country":"RU","coord":{"lon":47.938332,"lat":56.185001}}
{"_id":525432,"name":"Монастырь","country":"RU","coord":{"lon":40.009445,"lat":43.592777}}
{"_id":583969,"name":"Аибга","country":"RU","coord":{"lon":40.189999,"lat":43.580002}}
{"_id":491422,"name":"Сочи","country":"RU","coord":{"lon":39.730278,"lat":43.599998}}
{"_id":874391,"name":"Кепша","country":"RU","coord":{"lon":40.048332,"lat":43.618332}}
{"_id":471911,"name":"Воронцовка","country":"RU","coord":{"lon":39.912777,"lat":43.615276}}
{"_id":805620,"name":"Калиновое Озеро","country":"RU","coord":{"lon":39.884724,"lat":43.613888}}
{"_id":554801,"name":"Измайловка","country":"RU","coord":{"lon":39.82111,"lat":43.624168}}
{"_id":563401,"name":"Естосадок","country":"RU","coord":{"lon":40.281666,"lat":43.685001}}
{"_id":552927,"name":"Карачаево-Черкесская Республика","country":"RU","coord":{"lon":42,"lat":44}}
{"_id":841292,"name":"Железноводский","country":"RU","coord":{"lon":42.990276,"lat":44.154167}}
{"_id":544123,"name":"Косино","country":"RU","coord":{"lon":37.856388,"lat":55.715}}
{"_id":472452,"name":"Вологодско-Ямская Слобода","country":"RU","coord":{"lon":30.316668,"lat":59.866669}}
{"_id":515698,"name":"Оленегорск","country":"RU","coord":{"lon":33.299999,"lat":68.150002}}
{"_id":533933,"name":"Ловозеро","country":"RU","coord":{"lon":35.011665,"lat":68.004997}}
{"_id":514801,"name":"Орловская Область","country":"RU","coord":{"lon":36.25,"lat":53}}
{"_id":571079,"name":"Букреево","country":"RU","coord":{"lon":36.537498,"lat":51.716942}}
{"_id":525702,"name":"Мокрое","country":"RU","coord":{"lon":40.25,"lat":55.450001}}
{"_id":818031,"name":"Чегодаево","country":"RU","coord":{"lon":37.389999,"lat":55.335831}}
{"_id":816847,"name":"Алексеевка","country":"RU","coord":{"lon":37.213612,"lat":55.240559}}
{"_id":817536,"name":"Войтово","country":"RU","coord":{"lon":35.078892,"lat":54.76667}}
{"_id":512670,"name":"Папаево","country":"RU","coord":{"lon":35.103611,"lat":54.77639}}
{"_id":577618,"name":"Беляево","country":"RU","coord":{"lon":35.099998,"lat":54.799999}}
{"_id":817539,"name":"Батино","country":"RU","coord":{"lon":35.089439,"lat":54.798889}}
{"_id":817542,"name":"Белдягино","country":"RU","coord":{"lon":35.068611,"lat":54.806938}}
{"_id":817544,"name":"Строево","country":"RU","coord":{"lon":35.145,"lat":54.80806}}
{"_id":817538,"name":"Никитино","country":"RU","coord":{"lon":35.149441,"lat":54.803612}}
{"_id":6420951,"name":"Рубихино","country":"RU","coord":{"lon":35.169998,"lat":54.799999}}
{"_id":567293,"name":"Республика Дагестан","country":"RU","coord":{"lon":47,"lat":43}}
{"_id":797527,"name":"Красный Курган","country":"RU","coord":{"lon":37.337502,"lat":45.013729}}
{"_id":475242,"name":"Верхнее Заречье","country":"RU","coord":{"lon":43.716671,"lat":57.833328}}
{"_id":499539,"name":"Садовой","country":"RU","coord":{"lon":38.01556,"lat":45.024719}}
{"_id":1510853,"name":"Барнаул","country":"RU","coord":{"lon":83.763611,"lat":53.360561}}
{"_id":1494346,"name":"Посёлок Рабочий","country":"RU","coord":{"lon":60.599998,"lat":56.849998}}
{"_id":1503901,"name":"Кемерово","country":"RU","coord":{"lon":86.083328,"lat":55.333328}}
{"_id":472761,"name":"Волгодонск","country":"RU","coord":{"lon":42.15139,"lat":47.513611}}
{"_id":1489425,"name":"Томск","country":"RU","coord":{"lon":84.966667,"lat":56.5}}
{"_id":478367,"name":"Ушково","country":"RU","coord":{"lon":29.639231,"lat":60.19735}}
{"_id":475936,"name":"Вельт","country":"RU","coord":{"lon":49.967281,"lat":68.047867}}
{"_id":486110,"name":"Сурхахи","country":"RU","coord":{"lon":44.901939,"lat":43.1875}}
{"_id":486665,"name":"Сухиничи","country":"RU","coord":{"lon":35.342541,"lat":54.099892}}
{"_id":515246,"name":"Онега","country":"RU","coord":{"lon":38.14035,"lat":63.906071}}
{"_id":515879,"name":"Октябрский","country":"RU","coord":{"lon":53.471031,"lat":54.481468}}
{"_id":544293,"name":"Косая Гора","country":"RU","coord":{"lon":37.54459,"lat":54.118961}}
{"_id":581671,"name":"Анна","country":"RU","coord":{"lon":40.429901,"lat":51.4842}}
{"_id":583437,"name":"Алатыр","country":"RU","coord":{"lon":46.581299,"lat":54.842098}}
{"_id":824987,"name":"Город Белгород","country":"RU","coord":{"lon":36.583328,"lat":50.583328}}
{"_id":828055,"name":"Белиджи","country":"RU","coord":{"lon":48.412472,"lat":41.891842}}
{"_id":831165,"name":"Заречный","country":"RU","coord":{"lon":46.583328,"lat":53.133331}}
{"_id":1486340,"name":"Яровое","country":"RU","coord":{"lon":78.580002,"lat":52.927299}}
{"_id":498064,"name":"Сажи","country":"RU","coord":{"lon":59.933331,"lat":56.866669}}
{"_id":1539209,"name":"Губкинский","country":"RU","coord":{"lon":76.502609,"lat":64.433998}}
{"_id":2019326,"name":"Нерчинск","country":"RU","coord":{"lon":116.583328,"lat":51.98333}}
{"_id":6853140,"name":"Лесной","country":"RU","coord":{"lon":63.0784,"lat":57.619801}}
{"_id":7287775,"name":"Нижнесортымский","country":"RU","coord":{"lon":71.760292,"lat":62.439651}}
{"_id":461705,"name":"Краснолесный","country":"RU","coord":{"lon":39.587719,"lat":51.880718}}
{"_id":461756,"name":"Зюкайка","country":"RU","coord":{"lon":54.700279,"lat":58.202499}}
{"_id":461781,"name":"Зыково","country":"RU","coord":{"lon":45.08633,"lat":54.068531}}
{"_id":462022,"name":"Зубово","country":"RU","coord":{"lon":36.972752,"lat":60.317951}}
{"_id":462050,"name":"Зубова Поляна","country":"RU","coord":{"lon":42.8372,"lat":54.077099}}
{"_id":462305,"name":"Знаменское","country":"RU","coord":{"lon":35.690552,"lat":53.27869}}
{"_id":462313,"name":"Знаменское","country":"RU","coord":{"lon":45.12867,"lat":43.678982}}
{"_id":462357,"name":"Знаменка","country":"RU","coord":{"lon":41.43108,"lat":52.416698}}
{"_id":462383,"name":"Змейская","country":"RU","coord":{"lon":44.15733,"lat":43.33617}}
{"_id":462413,"name":"Злынка","country":"RU","coord":{"lon":31.737801,"lat":52.426701}}
{"_id":462626,"name":"Зилаир","country":"RU","coord":{"lon":57.439201,"lat":52.2332}}
{"_id":462815,"name":"Жуковка","country":"RU","coord":{"lon":37.51667,"lat":56.48333}}
{"_id":462914,"name":"Жиздра","country":"RU","coord":{"lon":34.73951,"lat":53.74596}}
{"_id":462964,"name":"Жирятино","country":"RU","coord":{"lon":33.730598,"lat":53.222801}}
{"_id":462988,"name":"Жирнов","country":"RU","coord":{"lon":41.12608,"lat":48.170891}}
{"_id":463050,"name":"Жилево","country":"RU","coord":{"lon":38.011059,"lat":55.01408}}
{"_id":463053,"name":"Жилетово","country":"RU","coord":{"lon":36.022251,"lat":54.692162}}
{"_id":463229,"name":"Жемтала","country":"RU","coord":{"lon":43.655861,"lat":43.284081}}
{"_id":463356,"name":"Железнодорожный","country":"RU","coord":{"lon":21.3057,"lat":54.363258}}
{"_id":463446,"name":"Жданковский","country":"RU","coord":{"lon":38.179508,"lat":53.753208}}
{"_id":463516,"name":"Жарковский","country":"RU","coord":{"lon":32.269699,"lat":55.848999}}
{"_id":463544,"name":"Жанхотеко","country":"RU","coord":{"lon":43.21056,"lat":43.564171}}
{"_id":463568,"name":"Жадовка","country":"RU","coord":{"lon":46.949848,"lat":53.574638}}
{"_id":463655,"name":"Зензели","country":"RU","coord":{"lon":47.04739,"lat":45.924068}}
{"_id":463690,"name":"Землянск","country":"RU","coord":{"lon":38.733398,"lat":51.904099}}
{"_id":463710,"name":"Земетчино","country":"RU","coord":{"lon":42.616322,"lat":53.497299}}
{"_id":463838,"name":"Зеленоборский","country":"RU","coord":{"lon":32.362221,"lat":66.845001}}
{"_id":463880,"name":"Зеленец","country":"RU","coord":{"lon":50.74892,"lat":61.88485}}
{"_id":463966,"name":"Заюково","country":"RU","coord":{"lon":43.333889,"lat":43.616112}}
{"_id":464018,"name":"Займище","country":"RU","coord":{"lon":32.233398,"lat":52.726398}}
{"_id":464094,"name":"Заворонежское","country":"RU","coord":{"lon":40.552601,"lat":52.8801}}
{"_id":464112,"name":"Заволжск","country":"RU","coord":{"lon":42.137791,"lat":57.4823}}
{"_id":464159,"name":"Завидово","country":"RU","coord":{"lon":36.533329,"lat":56.533329}}
{"_id":464179,"name":"Заветное","country":"RU","coord":{"lon":43.890282,"lat":47.119438}}
{"_id":464180,"name":"Заветное","country":"RU","coord":{"lon":41.599499,"lat":44.749199}}
{"_id":464260,"name":"Затеречный","country":"RU","coord":{"lon":45.209721,"lat":44.79306}}
{"_id":464468,"name":"Зарубино","country":"RU","coord":{"lon":33.475559,"lat":58.735001}}
{"_id":464616,"name":"Заречный","country":"RU","coord":{"lon":42.284309,"lat":57.469311}}
{"_id":464621,"name":"Заречный","country":"RU","coord":{"lon":39.594372,"lat":53.730598}}
{"_id":464829,"name":"Заплавное","country":"RU","coord":{"lon":45.0229,"lat":48.7048}}
{"_id":464891,"name":"Западная Двина","country":"RU","coord":{"lon":32.074539,"lat":56.25901}}
{"_id":465019,"name":"Зандак","country":"RU","coord":{"lon":46.456669,"lat":43.05722}}
{"_id":465174,"name":"Залукокоаже","country":"RU","coord":{"lon":43.215561,"lat":43.903889}}
{"_id":465446,"name":"Захарово","country":"RU","coord":{"lon":39.279202,"lat":54.366001}}
{"_id":465532,"name":"Закан-Юрт","country":"RU","coord":{"lon":45.420559,"lat":43.25972}}
{"_id":465934,"name":"Заболотовка","country":"RU","coord":{"lon":39.314701,"lat":50.273682}}
{"_id":466013,"name":"Южный-Коспашский","country":"RU","coord":{"lon":57.75478,"lat":58.969479}}
{"_id":466060,"name":"Южно-Сухокумск","country":"RU","coord":{"lon":45.6436,"lat":44.658112}}
{"_id":466200,"name":"Юрюзан","country":"RU","coord":{"lon":58.42194,"lat":54.863331}}
{"_id":466314,"name":"Юровка","country":"RU","coord":{"lon":37.418819,"lat":45.1147}}
{"_id":466349,"name":"Юрла","country":"RU","coord":{"lon":54.322338,"lat":59.32589}}
{"_id":466423,"name":"Юрино","country":"RU","coord":{"lon":46.303921,"lat":56.29417}}
{"_id":466538,"name":"Юмагузино","country":"RU","coord":{"lon":56.393291,"lat":52.904121}}
{"_id":466658,"name":"Юхнов","country":"RU","coord":{"lon":35.229721,"lat":54.744438}}
{"_id":466674,"name":"Юкаменское","country":"RU","coord":{"lon":52.24157,"lat":57.886539}}
{"_id":466699,"name":"Юго-Камский","country":"RU","coord":{"lon":55.589439,"lat":57.70528}}
{"_id":466710,"name":"Юганец","country":"RU","coord":{"lon":43.23069,"lat":56.250801}}
{"_id":466724,"name":"Юг","country":"RU","coord":{"lon":56.172001,"lat":57.729301}}
{"_id":466798,"name":"Юбилейный","country":"RU","coord":{"lon":57.777821,"lat":58.781021}}
{"_id":467084,"name":"Ерцево","country":"RU","coord":{"lon":40.085999,"lat":60.7966}}
{"_id":467134,"name":"Ершичи","country":"RU","coord":{"lon":32.754169,"lat":53.672501}}
{"_id":467238,"name":"Ермолино","country":"RU","coord":{"lon":36.595131,"lat":55.194889}}
{"_id":467246,"name":"Ермолаево","country":"RU","coord":{"lon":55.799999,"lat":52.716671}}
{"_id":467252,"name":"Ермиш","country":"RU","coord":{"lon":42.271111,"lat":54.76778}}
{"_id":467260,"name":"Ермекеево","country":"RU","coord":{"lon":53.671249,"lat":54.076141}}
{"_id":467464,"name":"Епифан","country":"RU","coord":{"lon":38.551811,"lat":53.82526}}
{"_id":467479,"name":"Енотаевка","country":"RU","coord":{"lon":47.028141,"lat":47.24559}}
{"_id":467527,"name":"Емца","country":"RU","coord":{"lon":40.332851,"lat":63.073372}}
{"_id":467539,"name":"Емецк","country":"RU","coord":{"lon":41.794102,"lat":63.472099}}
{"_id":467711,"name":"Елово","country":"RU","coord":{"lon":54.9207,"lat":57.05381}}
{"_id":467753,"name":"Елня","country":"RU","coord":{"lon":33.183731,"lat":54.57864}}
{"_id":467787,"name":"Елкино","country":"RU","coord":{"lon":59.829109,"lat":58.694}}
{"_id":467819,"name":"Елховка","country":"RU","coord":{"lon":50.283192,"lat":53.86668}}
{"_id":467850,"name":"Елизаветинское","country":"RU","coord":{"lon":43.349442,"lat":45.007221}}
{"_id":467856,"name":"Елизаветино","country":"RU","coord":{"lon":29.79376,"lat":59.49157}}
{"_id":468042,"name":"Елан-Коленовский","country":"RU","coord":{"lon":41.151001,"lat":51.1632}}
{"_id":468044,"name":"Елан-Колено","country":"RU","coord":{"lon":41.230598,"lat":51.152302}}
{"_id":468116,"name":"Екимовичи","country":"RU","coord":{"lon":33.296478,"lat":54.11285}}
{"_id":468180,"name":"Екатериновка","country":"RU","coord":{"lon":44.34515,"lat":52.050831}}
{"_id":468483,"name":"Языково","country":"RU","coord":{"lon":56.135319,"lat":55.219879}}
{"_id":468486,"name":"Языково","country":"RU","coord":{"lon":47.389099,"lat":54.292198}}
{"_id":468587,"name":"Явас","country":"RU","coord":{"lon":42.849098,"lat":54.415901}}
{"_id":468747,"name":"Яшкул","country":"RU","coord":{"lon":45.343498,"lat":46.171101}}
{"_id":468776,"name":"Яшалта","country":"RU","coord":{"lon":42.276199,"lat":46.3395}}
{"_id":468782,"name":"Ясенская","country":"RU","coord":{"lon":38.269001,"lat":46.3592}}
{"_id":468927,"name":"Ярополец","country":"RU","coord":{"lon":35.833172,"lat":56.133331}}
{"_id":468983,"name":"Яренск","country":"RU","coord":{"lon":49.091621,"lat":62.167549}}
{"_id":469017,"name":"Яр","country":"RU","coord":{"lon":52.102581,"lat":58.248981}}
{"_id":469049,"name":"Янтиково","country":"RU","coord":{"lon":47.910358,"lat":55.821579}}
{"_id":469081,"name":"Янисярви","country":"RU","coord":{"lon":30.950001,"lat":61.883331}}
{"_id":469087,"name":"Янино Второе","country":"RU","coord":{"lon":30.615339,"lat":59.935501}}
{"_id":469151,"name":"Яндыки","country":"RU","coord":{"lon":47.125771,"lat":45.769131}}
{"_id":469186,"name":"Новая Мака","country":"RU","coord":{"lon":48.361488,"lat":41.771729}}
{"_id":469372,"name":"Ялхой-Мохк","country":"RU","coord":{"lon":46.190449,"lat":43.105282}}
{"_id":469512,"name":"Яксатово","country":"RU","coord":{"lon":48.015141,"lat":46.24342}}
{"_id":469544,"name":"Яковлево","country":"RU","coord":{"lon":29.488001,"lat":60.29409}}
{"_id":469577,"name":"Яковлево","country":"RU","coord":{"lon":36.447842,"lat":50.860329}}
{"_id":469655,"name":"Яхрома","country":"RU","coord":{"lon":37.48333,"lat":56.299999}}
{"_id":469933,"name":"Выездное","country":"RU","coord":{"lon":43.786381,"lat":55.381538}}
{"_id":469960,"name":"Вытегра","country":"RU","coord":{"lon":36.448109,"lat":61.006359}}
{"_id":469991,"name":"Высоцкое","country":"RU","coord":{"lon":42.906391,"lat":45.025002}}
{"_id":469995,"name":"Высоцк","country":"RU","coord":{"lon":28.57048,"lat":60.628792}}
{"_id":470268,"name":"Вышнее Долгое","country":"RU","coord":{"lon":37.405182,"lat":52.063019}}
{"_id":470274,"name":"Вышков","country":"RU","coord":{"lon":31.6873,"lat":52.476398}}
{"_id":470304,"name":"Выша","country":"RU","coord":{"lon":42.377659,"lat":53.847679}}
{"_id":470390,"name":"Выползово","country":"RU","coord":{"lon":33.698608,"lat":57.876671}}
{"_id":470473,"name":"Выгоничи","country":"RU","coord":{"lon":34.06728,"lat":53.098549}}
{"_id":470499,"name":"Выдропужск","country":"RU","coord":{"lon":34.842869,"lat":57.3647}}
{"_id":470549,"name":"Выбор","country":"RU","coord":{"lon":29.1663,"lat":57.227161}}
{"_id":471160,"name":"Вознесене","country":"RU","coord":{"lon":35.47813,"lat":61.010601}}
{"_id":471172,"name":"Вознесенское","country":"RU","coord":{"lon":42.756939,"lat":54.889999}}
{"_id":471189,"name":"Вознесенская","country":"RU","coord":{"lon":44.745831,"lat":43.541672}}
{"_id":471245,"name":"Вожега","country":"RU","coord":{"lon":40.22134,"lat":60.472462}}
{"_id":471308,"name":"Войвож","country":"RU","coord":{"lon":54.963459,"lat":62.891979}}
{"_id":471499,"name":"Восточный","country":"RU","coord":{"lon":52.245129,"lat":58.788109}}
{"_id":471607,"name":"Воскресенское","country":"RU","coord":{"lon":45.431671,"lat":56.838058}}
{"_id":471633,"name":"Воскресенское","country":"RU","coord":{"lon":56.146641,"lat":53.12336}}
{"_id":471639,"name":"Воскресенское","country":"RU","coord":{"lon":46.935081,"lat":51.82478}}
{"_id":471799,"name":"Воротынец","country":"RU","coord":{"lon":45.8633,"lat":56.06028}}
{"_id":471820,"name":"Ворошнево","country":"RU","coord":{"lon":36.01722,"lat":51.652779}}
{"_id":471909,"name":"Воронцовка","country":"RU","coord":{"lon":40.3549,"lat":50.613201}}
{"_id":472229,"name":"Волжский","country":"RU","coord":{"lon":50.133331,"lat":53.433331}}
{"_id":472306,"name":"Волово","country":"RU","coord":{"lon":37.885399,"lat":52.026588}}
{"_id":472387,"name":"Волошка","country":"RU","coord":{"lon":40.085831,"lat":61.33139}}
{"_id":472490,"name":"Володарский","country":"RU","coord":{"lon":48.540932,"lat":46.40134}}
{"_id":472714,"name":"Волховский","country":"RU","coord":{"lon":31.31641,"lat":58.580002}}
{"_id":472751,"name":"Волго-Каспийский","country":"RU","coord":{"lon":47.91869,"lat":46.20306}}
{"_id":472878,"name":"Вохтога","country":"RU","coord":{"lon":41.046108,"lat":58.81472}}
{"_id":472887,"name":"Вохма","country":"RU","coord":{"lon":46.758591,"lat":58.930302}}
{"_id":472942,"name":"Водстрой","country":"RU","coord":{"lon":44.55793,"lat":48.841648}}
{"_id":472961,"name":"Юца","country":"RU","coord":{"lon":43.012779,"lat":43.95639}}
{"_id":472976,"name":"Водный","country":"RU","coord":{"lon":53.40947,"lat":63.504639}}
{"_id":473263,"name":"Визинга","country":"RU","coord":{"lon":50.103111,"lat":61.074928}}
{"_id":473349,"name":"Вистино","country":"RU","coord":{"lon":28.481569,"lat":59.780289}}
{"_id":473378,"name":"Висим","country":"RU","coord":{"lon":59.5014,"lat":57.6488}}
{"_id":473382,"name":"Вишняковские Дачи","country":"RU","coord":{"lon":38.134441,"lat":55.761391}}
{"_id":473535,"name":"Виноградово","country":"RU","coord":{"lon":37.549999,"lat":56.933331}}
{"_id":473611,"name":"Виля","country":"RU","coord":{"lon":42.208889,"lat":55.24556}}
{"_id":473627,"name":"Виловатово","country":"RU","coord":{"lon":46.601341,"lat":56.172401}}
{"_id":473856,"name":"Вейделевка","country":"RU","coord":{"lon":38.4492,"lat":50.1521}}
{"_id":473903,"name":"Ветлужский","country":"RU","coord":{"lon":45.46542,"lat":58.39016}}
{"_id":473904,"name":"Ветлужский","country":"RU","coord":{"lon":45.122719,"lat":57.17355}}
{"_id":473910,"name":"Ветлуга","country":"RU","coord":{"lon":45.781021,"lat":57.85574}}
{"_id":473943,"name":"Весегонск","country":"RU","coord":{"lon":37.260399,"lat":58.663979}}
{"_id":474004,"name":"Вещево","country":"RU","coord":{"lon":29.18305,"lat":60.731071}}
{"_id":474059,"name":"Веселый","country":"RU","coord":{"lon":40.742199,"lat":47.09338}}
{"_id":474290,"name":"Верхозим","country":"RU","coord":{"lon":45.41803,"lat":52.712212}}
{"_id":474354,"name":"Верховаже","country":"RU","coord":{"lon":42.04652,"lat":60.747169}}
{"_id":474370,"name":"Верхошижеме","country":"RU","coord":{"lon":49.10384,"lat":58.010971}}
{"_id":474470,"name":"Верхняя Тойма","country":"RU","coord":{"lon":44.99852,"lat":62.234871}}
{"_id":474473,"name":"Верхняя Тишанка","country":"RU","coord":{"lon":40.53278,"lat":51.323891}}
{"_id":541951,"name":"Краснозатонский","country":"RU","coord":{"lon":50.979389,"lat":61.675781}}
{"_id":474603,"name":"Верхняя Максаковка","country":"RU","coord":{"lon":50.9674,"lat":61.63504}}
{"_id":474663,"name":"Кища","country":"RU","coord":{"lon":47.581169,"lat":42.176769}}
{"_id":474669,"name":"Верхняя Хава","country":"RU","coord":{"lon":39.941341,"lat":51.84045}}
{"_id":474743,"name":"Верхняя Балкария","country":"RU","coord":{"lon":43.457321,"lat":43.12785}}
{"_id":474795,"name":"Верхний Услон","country":"RU","coord":{"lon":48.9823,"lat":55.7701}}
{"_id":474902,"name":"Лакха Невре","country":"RU","coord":{"lon":45.245419,"lat":43.610329}}
{"_id":474916,"name":"Верхний Мамон","country":"RU","coord":{"lon":40.383202,"lat":50.163502}}
{"_id":474926,"name":"Верхний Ломов","country":"RU","coord":{"lon":43.551109,"lat":53.467781}}
{"_id":474931,"name":"Верхний Ландех","country":"RU","coord":{"lon":42.599442,"lat":56.83889}}
{"_id":474940,"name":"Верхний Куркужин","country":"RU","coord":{"lon":43.274719,"lat":43.69556}}
{"_id":475003,"name":"Верхний Фиагдон","country":"RU","coord":{"lon":44.305279,"lat":42.833328}}
{"_id":475030,"name":"Верхние Татышлы","country":"RU","coord":{"lon":55.857498,"lat":56.291168}}
{"_id":475041,"name":"Верхние Серги","country":"RU","coord":{"lon":59.555561,"lat":56.646938}}
{"_id":513632,"name":"ойнолово","country":"RU","coord":{"lon":30.433331,"lat":60.26667}}
{"_id":475060,"name":"Верхние Оселки","country":"RU","coord":{"lon":30.449381,"lat":60.249481}}
{"_id":475100,"name":"Верхние Киги","country":"RU","coord":{"lon":58.604439,"lat":55.408329}}
{"_id":475157,"name":"Верхние Ачалуки","country":"RU","coord":{"lon":44.697498,"lat":43.346939}}
{"_id":475196,"name":"Верхний Баскунчак","country":"RU","coord":{"lon":46.721699,"lat":48.225639}}
{"_id":475206,"name":"Верхний Авзян","country":"RU","coord":{"lon":57.53722,"lat":53.528889}}
{"_id":475369,"name":"Верхнее Казанище","country":"RU","coord":{"lon":47.137798,"lat":42.73547}}
{"_id":475438,"name":"Верхнеяркеево","country":"RU","coord":{"lon":54.314548,"lat":55.450459}}
{"_id":475463,"name":"Верхнеуралск","country":"RU","coord":{"lon":59.21056,"lat":53.876942}}
{"_id":475469,"name":"Верхнетуломский","country":"RU","coord":{"lon":31.796209,"lat":68.607269}}
{"_id":475614,"name":"Верхнеднепровский","country":"RU","coord":{"lon":33.34573,"lat":54.981312}}
{"_id":475699,"name":"Верея","country":"RU","coord":{"lon":39.09766,"lat":55.773731}}
{"_id":475700,"name":"Верея","country":"RU","coord":{"lon":38.039169,"lat":55.614719}}
{"_id":475701,"name":"Верея","country":"RU","coord":{"lon":36.17194,"lat":55.344719}}
{"_id":475868,"name":"Венцы","country":"RU","coord":{"lon":40.835831,"lat":45.376389}}
{"_id":475955,"name":"Велиж","country":"RU","coord":{"lon":31.19673,"lat":55.60564}}
{"_id":476028,"name":"Великовечное","country":"RU","coord":{"lon":39.75499,"lat":44.934021}}
{"_id":476046,"name":"Великооктябрский","country":"RU","coord":{"lon":33.815948,"lat":57.433338}}
{"_id":476055,"name":"Великодворский","country":"RU","coord":{"lon":40.667801,"lat":55.249962}}
{"_id":476106,"name":"Великент","country":"RU","coord":{"lon":48.06284,"lat":42.18626}}
{"_id":476252,"name":"Ведено","country":"RU","coord":{"lon":46.095001,"lat":42.97028}}
{"_id":476297,"name":"Важины","country":"RU","coord":{"lon":34.022221,"lat":60.964439}}
{"_id":476343,"name":"Вавож","country":"RU","coord":{"lon":51.930981,"lat":56.775131}}
{"_id":476548,"name":"Василевский Мох","country":"RU","coord":{"lon":35.918968,"lat":57.013161}}
{"_id":476982,"name":"Варнавино","country":"RU","coord":{"lon":45.09164,"lat":57.403511}}
{"_id":477004,"name":"Варламово","country":"RU","coord":{"lon":48.4226,"lat":53.189701}}
{"_id":477039,"name":"Варениковская","country":"RU","coord":{"lon":37.641708,"lat":45.12085}}
{"_id":477279,"name":"Валерик","country":"RU","coord":{"lon":45.408058,"lat":43.179722}}
{"_id":477280,"name":"Валериановск","country":"RU","coord":{"lon":59.552219,"lat":58.759998}}
{"_id":477337,"name":"Вахтан","country":"RU","coord":{"lon":46.688862,"lat":57.965919}}
{"_id":477340,"name":"Вахруши","country":"RU","coord":{"lon":50.026112,"lat":58.684719}}
{"_id":477424,"name":"Вад","country":"RU","coord":{"lon":44.211369,"lat":55.53009}}
{"_id":477440,"name":"Вача","country":"RU","coord":{"lon":42.770561,"lat":55.800831}}
{"_id":477466,"name":"Узуново","country":"RU","coord":{"lon":38.61734,"lat":54.538582}}
{"_id":530336,"name":"Малынчевская","country":"RU","coord":{"lon":40.833328,"lat":64.48333}}
{"_id":477579,"name":"Уемский","country":"RU","coord":{"lon":40.852402,"lat":64.474297}}
{"_id":477682,"name":"Уцмиюрт","country":"RU","coord":{"lon":46.469521,"lat":43.534809}}
{"_id":477744,"name":"Утевка","country":"RU","coord":{"lon":50.949501,"lat":52.9035}}
{"_id":477762,"name":"Утамыш","country":"RU","coord":{"lon":47.751091,"lat":42.407181}}
{"_id":477774,"name":"Усвяты","country":"RU","coord":{"lon":30.75333,"lat":55.74556}}
{"_id":477789,"name":"Усухчай","country":"RU","coord":{"lon":47.913181,"lat":41.422451}}
{"_id":477795,"name":"Устюжна","country":"RU","coord":{"lon":36.432098,"lat":58.839401}}
{"_id":477846,"name":"Усте","country":"RU","coord":{"lon":39.735958,"lat":59.630428}}
{"_id":477940,"name":"Уст-Цилма","country":"RU","coord":{"lon":52.14978,"lat":65.44104}}
{"_id":477958,"name":"Уст-Шоноша","country":"RU","coord":{"lon":41.342999,"lat":61.153099}}
{"_id":478036,"name":"Уст-Луга","country":"RU","coord":{"lon":28.28713,"lat":59.667549}}
{"_id":478064,"name":"Уст-Кишерт","country":"RU","coord":{"lon":57.2495,"lat":57.365398}}
{"_id":478132,"name":"Уст-Донецкий","country":"RU","coord":{"lon":40.871819,"lat":47.641899}}
{"_id":478197,"name":"Успенское","country":"RU","coord":{"lon":41.3927,"lat":44.8311}}
{"_id":478213,"name":"Успенская","country":"RU","coord":{"lon":41.066959,"lat":45.764481}}
{"_id":478269,"name":"Усоле","country":"RU","coord":{"lon":56.680809,"lat":59.42675}}
{"_id":478297,"name":"Усогорск","country":"RU","coord":{"lon":48.687222,"lat":63.410641}}
{"_id":478344,"name":"Усиша","country":"RU","coord":{"lon":47.39278,"lat":42.25111}}
{"_id":478532,"name":"Уржум","country":"RU","coord":{"lon":49.999561,"lat":57.11412}}
{"_id":478538,"name":"Урыв-Покровка","country":"RU","coord":{"lon":39.16394,"lat":51.115898}}
{"_id":478563,"name":"Урван","country":"RU","coord":{"lon":43.760559,"lat":43.492222}}
{"_id":478601,"name":"Урух","country":"RU","coord":{"lon":44.02647,"lat":43.29335}}
{"_id":478620,"name":"Уршелский","country":"RU","coord":{"lon":40.216919,"lat":55.678322}}
{"_id":478640,"name":"Урожайное","country":"RU","coord":{"lon":44.922779,"lat":44.78833}}
{"_id":478699,"name":"Урман","country":"RU","coord":{"lon":56.874168,"lat":54.883141}}
{"_id":478711,"name":"Уркарах","country":"RU","coord":{"lon":47.63068,"lat":42.162971}}
{"_id":478769,"name":"Урдома","country":"RU","coord":{"lon":48.544201,"lat":61.753349}}
{"_id":478781,"name":"Уразово","country":"RU","coord":{"lon":38.039501,"lat":50.083599}}
{"_id":478782,"name":"Уразовка","country":"RU","coord":{"lon":45.618599,"lat":55.40126}}
{"_id":478849,"name":"Уралец","country":"RU","coord":{"lon":59.6497,"lat":57.6614}}
{"_id":478920,"name":"Упорная","country":"RU","coord":{"lon":41.0196,"lat":44.391399}}
{"_id":478963,"name":"Унцукул","country":"RU","coord":{"lon":46.786629,"lat":42.711491}}
{"_id":478996,"name":"Уни","country":"RU","coord":{"lon":51.492321,"lat":57.75351}}
{"_id":479021,"name":"Ундоры","country":"RU","coord":{"lon":48.392761,"lat":54.60849}}
{"_id":479055,"name":"Умет","country":"RU","coord":{"lon":42.697498,"lat":54.116112}}
{"_id":479201,"name":"Улукулево","country":"RU","coord":{"lon":56.322102,"lat":54.435501}}
{"_id":479241,"name":"Уллубияул","country":"RU","coord":{"lon":47.718239,"lat":42.596889}}
{"_id":479242,"name":"Уллуая","country":"RU","coord":{"lon":47.374512,"lat":42.373772}}
{"_id":479426,"name":"Ухолово","country":"RU","coord":{"lon":40.489201,"lat":53.7929}}
{"_id":479442,"name":"Уинское","country":"RU","coord":{"lon":56.581348,"lat":56.881741}}
{"_id":479471,"name":"Угра","country":"RU","coord":{"lon":34.32674,"lat":54.777748}}
{"_id":479512,"name":"Углянец","country":"RU","coord":{"lon":39.596062,"lat":51.81908}}
{"_id":479523,"name":"Угловка","country":"RU","coord":{"lon":33.51083,"lat":58.23917}}
{"_id":479535,"name":"Углеуралский","country":"RU","coord":{"lon":57.584629,"lat":58.95335}}
{"_id":479537,"name":"Углеродовский","country":"RU","coord":{"lon":40.062069,"lat":48.147041}}
{"_id":479539,"name":"Углегорский","country":"RU","coord":{"lon":41.253101,"lat":48.242741}}
{"_id":479553,"name":"Уфимский","country":"RU","coord":{"lon":58.051701,"lat":56.708401}}
{"_id":479596,"name":"Удобная","country":"RU","coord":{"lon":41.552898,"lat":44.193199}}
{"_id":479619,"name":"Удимский","country":"RU","coord":{"lon":45.914421,"lat":61.141708}}
{"_id":479640,"name":"Уделная","country":"RU","coord":{"lon":38.002838,"lat":55.625359}}
{"_id":479685,"name":"Учкулан","country":"RU","coord":{"lon":42.096432,"lat":43.457062}}
{"_id":479850,"name":"Тюлячи","country":"RU","coord":{"lon":50.239922,"lat":55.891251}}
{"_id":479871,"name":"Тюлган","country":"RU","coord":{"lon":56.166039,"lat":52.340488}}
{"_id":479999,"name":"Тярлево","country":"RU","coord":{"lon":30.45639,"lat":59.700562}}
{"_id":480085,"name":"Тужа","country":"RU","coord":{"lon":47.93597,"lat":57.606152}}
{"_id":480267,"name":"Турки","country":"RU","coord":{"lon":43.273102,"lat":51.98703}}
{"_id":480301,"name":"Тургенево","country":"RU","coord":{"lon":46.329681,"lat":54.845539}}
{"_id":480484,"name":"Тума","country":"RU","coord":{"lon":40.553741,"lat":55.14798}}
{"_id":480637,"name":"Тукан","country":"RU","coord":{"lon":57.4552,"lat":53.8409}}
{"_id":480654,"name":"Туголесский Бор","country":"RU","coord":{"lon":39.824219,"lat":55.55051}}
{"_id":480704,"name":"Тубинский","country":"RU","coord":{"lon":58.2225,"lat":52.889172}}
{"_id":480798,"name":"Цуриб","country":"RU","coord":{"lon":46.83073,"lat":42.236801}}
{"_id":480884,"name":"Цилна","country":"RU","coord":{"lon":48.141399,"lat":54.595329}}
{"_id":481007,"name":"Центорой","country":"RU","coord":{"lon":46.223061,"lat":43.00639}}
{"_id":481117,"name":"Цаган Аман","country":"RU","coord":{"lon":46.721802,"lat":47.5639}}
{"_id":481181,"name":"Труновское","country":"RU","coord":{"lon":42.13583,"lat":45.487782}}
{"_id":481439,"name":"Тросна","country":"RU","coord":{"lon":35.779099,"lat":52.444599}}
{"_id":481498,"name":"Троицкое","country":"RU","coord":{"lon":38.533329,"lat":55.299999}}
{"_id":481542,"name":"Троицкое","country":"RU","coord":{"lon":44.259102,"lat":46.420601}}
{"_id":481543,"name":"Троицкое","country":"RU","coord":{"lon":44.684151,"lat":43.762199}}
{"_id":481548,"name":"Троицко-Печорск","country":"RU","coord":{"lon":56.19643,"lat":62.708359}}
{"_id":481580,"name":"Троицкий","country":"RU","coord":{"lon":37.525299,"lat":51.358799}}
{"_id":481604,"name":"Троицкая","country":"RU","coord":{"lon":38.125439,"lat":45.13493}}
{"_id":481900,"name":"Тпиг","country":"RU","coord":{"lon":47.588959,"lat":41.780071}}
{"_id":481938,"name":"Товарковский","country":"RU","coord":{"lon":38.209202,"lat":53.682171}}
{"_id":481955,"name":"Тоцкое","country":"RU","coord":{"lon":52.76228,"lat":52.52478}}
{"_id":482096,"name":"Торфяной","country":"RU","coord":{"lon":49.197861,"lat":58.4916}}
{"_id":482123,"name":"Торбеево","country":"RU","coord":{"lon":43.247318,"lat":54.07972}}
{"_id":482219,"name":"Тоншаево","country":"RU","coord":{"lon":47.01265,"lat":57.735981}}
{"_id":482230,"name":"Тонкино","country":"RU","coord":{"lon":46.46294,"lat":57.37257}}
{"_id":482275,"name":"Томаровка","country":"RU","coord":{"lon":36.233089,"lat":50.68338}}
{"_id":482309,"name":"Толстой-Юрт","country":"RU","coord":{"lon":45.772221,"lat":43.444439}}
{"_id":482432,"name":"Толбазы","country":"RU","coord":{"lon":55.882481,"lat":54.024078}}
{"_id":482589,"name":"Тлярата","country":"RU","coord":{"lon":46.3559,"lat":42.10408}}
{"_id":482742,"name":"Тищенское","country":"RU","coord":{"lon":41.67382,"lat":45.46056}}
{"_id":482761,"name":"Тирлянский","country":"RU","coord":{"lon":58.580601,"lat":54.210899}}
{"_id":482986,"name":"Тим","country":"RU","coord":{"lon":37.124439,"lat":51.622219}}
{"_id":483150,"name":"Тетюши","country":"RU","coord":{"lon":48.836559,"lat":54.93821}}
{"_id":483281,"name":"Терская","country":"RU","coord":{"lon":44.724419,"lat":43.723759}}
{"_id":483341,"name":"Терновка","country":"RU","coord":{"lon":41.637501,"lat":51.678028}}
{"_id":483379,"name":"Териберка","country":"RU","coord":{"lon":35.145271,"lat":69.160881}}
{"_id":483386,"name":"Терезе","country":"RU","coord":{"lon":42.443401,"lat":43.936081}}
{"_id":483439,"name":"Терекли-Мектеб","country":"RU","coord":{"lon":45.869751,"lat":44.167099}}
{"_id":483575,"name":"Теплое","country":"RU","coord":{"lon":37.59026,"lat":53.62022}}
{"_id":483613,"name":"Теплая Гора","country":"RU","coord":{"lon":59.072781,"lat":58.524441}}
{"_id":483642,"name":"Тенгушево","country":"RU","coord":{"lon":42.718891,"lat":54.768608}}
{"_id":483650,"name":"Темясово","country":"RU","coord":{"lon":58.101391,"lat":52.993328}}
{"_id":483689,"name":"Темкино","country":"RU","coord":{"lon":35.013889,"lat":55.109169}}
{"_id":483691,"name":"Темижбекская","country":"RU","coord":{"lon":41.038658,"lat":45.450779}}
{"_id":483692,"name":"Темижбекская","country":"RU","coord":{"lon":40.845001,"lat":45.44556}}
{"_id":483696,"name":"Темиргоевская","country":"RU","coord":{"lon":40.28027,"lat":45.11414}}
{"_id":483699,"name":"Темираул","country":"RU","coord":{"lon":46.825401,"lat":43.25322}}
{"_id":483873,"name":"Теберда","country":"RU","coord":{"lon":41.744801,"lat":43.445648}}
{"_id":484017,"name":"Тацинский","country":"RU","coord":{"lon":41.275581,"lat":48.19677}}
{"_id":484127,"name":"Татарская Каргала","country":"RU","coord":{"lon":55.173141,"lat":51.94952}}
{"_id":484162,"name":"Татарка","country":"RU","coord":{"lon":41.95171,"lat":44.9589}}
{"_id":484232,"name":"Ташла","country":"RU","coord":{"lon":52.742699,"lat":51.771568}}
{"_id":484290,"name":"Тарумовка","country":"RU","coord":{"lon":46.536129,"lat":44.076061}}
{"_id":484296,"name":"Тарское","country":"RU","coord":{"lon":44.771141,"lat":42.966991}}
{"_id":484314,"name":"Тарногский Городок","country":"RU","coord":{"lon":43.576111,"lat":60.499722}}
{"_id":484334,"name":"Тарки","country":"RU","coord":{"lon":47.49527,"lat":42.944229}}
{"_id":583034,"name":"Александровская","country":"RU","coord":{"lon":29.979349,"lat":60.051682}}
{"_id":484340,"name":"Тарховка","country":"RU","coord":{"lon":29.97435,"lat":60.066872}}
{"_id":484367,"name":"Таремское","country":"RU","coord":{"lon":43.044331,"lat":55.92889}}
{"_id":484644,"name":"Тамбовка","country":"RU","coord":{"lon":47.377731,"lat":47.315281}}
{"_id":484674,"name":"Тамала","country":"RU","coord":{"lon":43.25145,"lat":52.54097}}
{"_id":484720,"name":"Таловый","country":"RU","coord":{"lon":40.109428,"lat":47.807652}}
{"_id":484747,"name":"Таловая","country":"RU","coord":{"lon":40.73,"lat":51.114441}}
{"_id":484770,"name":"Талицы","country":"RU","coord":{"lon":42.334438,"lat":56.528889}}
{"_id":485064,"name":"Сюмси","country":"RU","coord":{"lon":51.614941,"lat":57.11108}}
{"_id":485140,"name":"Сыртыч","country":"RU","coord":{"lon":48.229012,"lat":41.833881}}
{"_id":485153,"name":"Сырское","country":"RU","coord":{"lon":39.496601,"lat":52.57436}}
{"_id":485162,"name":"Сыростан","country":"RU","coord":{"lon":59.9002,"lat":55.0634}}
{"_id":485206,"name":"Сынтул","country":"RU","coord":{"lon":41.2971,"lat":55.003269}}
{"_id":485215,"name":"Сыня","country":"RU","coord":{"lon":58.038738,"lat":65.371849}}
{"_id":485230,"name":"Сылва","country":"RU","coord":{"lon":56.763458,"lat":58.034752}}
{"_id":485273,"name":"Сычево","country":"RU","coord":{"lon":36.227852,"lat":55.95771}}
{"_id":485280,"name":"Сычевка","country":"RU","coord":{"lon":34.273621,"lat":55.82515}}
{"_id":485304,"name":"Сява","country":"RU","coord":{"lon":46.322159,"lat":58.014568}}
{"_id":485351,"name":"Сямжа","country":"RU","coord":{"lon":41.06139,"lat":60.01577}}
{"_id":485449,"name":"Свободный","country":"RU","coord":{"lon":46.37122,"lat":52.330391}}
{"_id":485516,"name":"Свияжск","country":"RU","coord":{"lon":48.660511,"lat":55.773289}}
{"_id":485643,"name":"Светлый Яр","country":"RU","coord":{"lon":44.78096,"lat":48.4748}}
{"_id":485763,"name":"Свердловский","country":"RU","coord":{"lon":38.15361,"lat":55.910831}}
{"_id":485785,"name":"Свен","country":"RU","coord":{"lon":34.551109,"lat":53.18222}}
{"_id":485799,"name":"Свеча","country":"RU","coord":{"lon":47.516361,"lat":58.278488}}
{"_id":486043,"name":"Сурское","country":"RU","coord":{"lon":46.721401,"lat":54.482101}}
{"_id":486073,"name":"Суроватиха","country":"RU","coord":{"lon":43.898449,"lat":55.76516}}
{"_id":486137,"name":"Сургут","country":"RU","coord":{"lon":51.20348,"lat":53.92498}}
{"_id":486148,"name":"Сураж","country":"RU","coord":{"lon":32.391781,"lat":53.017471}}
{"_id":486163,"name":"Сура","country":"RU","coord":{"lon":45.74192,"lat":53.887859}}
{"_id":486178,"name":"Супонево","country":"RU","coord":{"lon":34.295971,"lat":53.204922}}
{"_id":486203,"name":"Сунжа","country":"RU","coord":{"lon":44.822811,"lat":43.05862}}
{"_id":486236,"name":"Суна","country":"RU","coord":{"lon":50.058842,"lat":57.83379}}
{"_id":486398,"name":"Сулак","country":"RU","coord":{"lon":47.514629,"lat":43.273418}}
{"_id":486413,"name":"Суксун","country":"RU","coord":{"lon":57.394901,"lat":57.143101}}
{"_id":486626,"name":"Суходол","country":"RU","coord":{"lon":51.2117,"lat":53.900631}}
{"_id":486645,"name":"Сухобезводное","country":"RU","coord":{"lon":44.889091,"lat":57.049129}}
{"_id":486725,"name":"Сухая Буйвола","country":"RU","coord":{"lon":42.99556,"lat":45.153332}}
{"_id":486816,"name":"Суджа","country":"RU","coord":{"lon":35.272598,"lat":51.197601}}
{"_id":486848,"name":"Судиславл","country":"RU","coord":{"lon":41.70829,"lat":57.881748}}
{"_id":486874,"name":"Суда","country":"RU","coord":{"lon":37.558201,"lat":59.152538}}
{"_id":486894,"name":"Субханкулово","country":"RU","coord":{"lon":53.811531,"lat":54.557411}}
{"_id":486983,"name":"Стулово","country":"RU","coord":{"lon":50.14389,"lat":58.7225}}
{"_id":487110,"name":"Струги-Красные","country":"RU","coord":{"lon":29.11137,"lat":58.26754}}
{"_id":487159,"name":"Стрижи","country":"RU","coord":{"lon":49.286671,"lat":58.457581}}
{"_id":487246,"name":"Стрелка","country":"RU","coord":{"lon":37.286499,"lat":45.206329}}
{"_id":487255,"name":"Стрелица","country":"RU","coord":{"lon":38.910198,"lat":51.608299}}
{"_id":487464,"name":"Стодолище","country":"RU","coord":{"lon":32.649239,"lat":54.18594}}
{"_id":487498,"name":"Стерлибашево","country":"RU","coord":{"lon":55.257801,"lat":53.43755}}
{"_id":487543,"name":"Степное","country":"RU","coord":{"lon":46.866669,"lat":51.400002}}
{"_id":487629,"name":"Степанцево","country":"RU","coord":{"lon":41.703201,"lat":56.131432}}
{"_id":487837,"name":"Ставрово","country":"RU","coord":{"lon":40.012951,"lat":56.13311}}
{"_id":487871,"name":"Старый Урух","country":"RU","coord":{"lon":44.018681,"lat":43.340408}}
{"_id":488128,"name":"Старые Атаги","country":"RU","coord":{"lon":45.740559,"lat":43.120281}}
{"_id":488142,"name":"Старый Черек","country":"RU","coord":{"lon":43.846939,"lat":43.47139}}
{"_id":488206,"name":"Старожилово","country":"RU","coord":{"lon":39.916,"lat":54.225399}}
{"_id":488214,"name":"Староюрево","country":"RU","coord":{"lon":40.708061,"lat":53.316109}}
{"_id":488466,"name":"Старое Дрожжаное","country":"RU","coord":{"lon":47.567661,"lat":54.726582}}
{"_id":488587,"name":"Старовеличковская","country":"RU","coord":{"lon":38.732609,"lat":45.428841}}
{"_id":488608,"name":"Старотимошкино","country":"RU","coord":{"lon":47.531158,"lat":53.719082}}
{"_id":488618,"name":"Старосубхангулово","country":"RU","coord":{"lon":57.442299,"lat":53.1031}}
{"_id":488706,"name":"Старопавловская","country":"RU","coord":{"lon":43.632778,"lat":43.848888}}
{"_id":488730,"name":"Старомышастовская","country":"RU","coord":{"lon":39.07608,"lat":45.343288}}
{"_id":488777,"name":"Старокучергановка","country":"RU","coord":{"lon":47.955502,"lat":46.32476}}
{"_id":488864,"name":"Старочеркасская","country":"RU","coord":{"lon":40.041859,"lat":47.240768}}
{"_id":488881,"name":"Старобалтачево","country":"RU","coord":{"lon":55.92131,"lat":56.00132}}
{"_id":488946,"name":"Старица","country":"RU","coord":{"lon":34.93544,"lat":56.507519}}
{"_id":489043,"name":"Старая Торопа","country":"RU","coord":{"lon":31.670179,"lat":56.280121}}
{"_id":489057,"name":"Старая Сунжа","country":"RU","coord":{"lon":45.742222,"lat":43.337219}}
{"_id":489063,"name":"Старая Станица","country":"RU","coord":{"lon":41.151199,"lat":45.0098}}
{"_id":489135,"name":"Старая Майна","country":"RU","coord":{"lon":48.950001,"lat":54.599998}}
{"_id":489164,"name":"Старая Кулатка","country":"RU","coord":{"lon":47.616669,"lat":52.716671}}
{"_id":489290,"name":"Становое","country":"RU","coord":{"lon":38.358181,"lat":52.76384}}
{"_id":489393,"name":"Средняя Елюзан","country":"RU","coord":{"lon":45.9529,"lat":53.024101}}
{"_id":489655,"name":"Спокойная","country":"RU","coord":{"lon":41.401501,"lat":44.246799}}
{"_id":489671,"name":"Спицевка","country":"RU","coord":{"lon":42.512501,"lat":45.123058}}
{"_id":489686,"name":"Спирово","country":"RU","coord":{"lon":34.976582,"lat":57.419048}}
{"_id":489701,"name":"Спиридоновка","country":"RU","coord":{"lon":50.64621,"lat":53.09248}}
{"_id":489743,"name":"Спасское-Лутовиново","country":"RU","coord":{"lon":36.622971,"lat":53.370121}}
{"_id":489778,"name":"Спасское","country":"RU","coord":{"lon":45.696949,"lat":55.860481}}
{"_id":489868,"name":"Спас-Деменск","country":"RU","coord":{"lon":34.022572,"lat":54.41222}}
{"_id":489910,"name":"Созимский","country":"RU","coord":{"lon":52.248211,"lat":59.741779}}
{"_id":489990,"name":"Совецкое","country":"RU","coord":{"lon":46.73333,"lat":51.450001}}
{"_id":489994,"name":"Совецкое","country":"RU","coord":{"lon":44.521622,"lat":47.308681}}
{"_id":489997,"name":"Кашхатау","country":"RU","coord":{"lon":43.60804,"lat":43.318481}}
{"_id":489998,"name":"Шатой","country":"RU","coord":{"lon":45.688648,"lat":42.871429}}
{"_id":489999,"name":"Хебда","country":"RU","coord":{"lon":46.55172,"lat":42.444229}}
{"_id":490039,"name":"Совецкий","country":"RU","coord":{"lon":28.677561,"lat":60.539452}}
{"_id":490040,"name":"Совецкий","country":"RU","coord":{"lon":48.476109,"lat":56.758331}}
{"_id":490064,"name":"Совецкая","country":"RU","coord":{"lon":42.12178,"lat":49.009121}}
{"_id":490066,"name":"Совецкая","country":"RU","coord":{"lon":44.049999,"lat":44.026669}}
{"_id":490108,"name":"Сотниковское","country":"RU","coord":{"lon":43.777222,"lat":45.003891}}
{"_id":490211,"name":"Сосновоборск","country":"RU","coord":{"lon":46.248489,"lat":53.290661}}
{"_id":490213,"name":"Сосново","country":"RU","coord":{"lon":30.214411,"lat":60.551449}}
{"_id":490300,"name":"Сосновка","country":"RU","coord":{"lon":43.297741,"lat":54.711609}}
{"_id":490323,"name":"Сосновка","country":"RU","coord":{"lon":41.37056,"lat":53.236938}}
{"_id":490425,"name":"Сосково","country":"RU","coord":{"lon":35.382771,"lat":52.74752}}
{"_id":490637,"name":"Сонково","country":"RU","coord":{"lon":37.15707,"lat":57.77816}}
{"_id":490683,"name":"Сомово","country":"RU","coord":{"lon":39.36655,"lat":51.740978}}
{"_id":490737,"name":"Солянка","country":"RU","coord":{"lon":48.017551,"lat":46.388901}}
